[{"geometry": {"type": "Point", "coordinates": [39.1366877081, -4.59383601205]}, "type": "Feature", "properties": {"objectives": 0, "description": 0, "title": 0}}, {"geometry": {"type": "Point", "coordinates": [39.513272, -4.437633]}, "type": "Feature", "properties": {"objectives": "Improvement in the adoption and implementation of standards in the food sector", "description": "Improve surveillance and risk analysis capabilities, strengthen the border inspection posts and their coordination and integration", "title": "Standards And Market Access Programme"}}, {"geometry": {"type": "Point", "coordinates": [39.513272, -4.437633]}, "type": "Feature", "properties": {"objectives": "PROVIDE ACCESS TO ECONOMIC AND SOCIAL SERVICES SERVICES", "description": "THE ROAD PROJECT IS APPROXIMATELY 53KM LONG SITUATED IN KWALE COUNTY", "title": "Rehabilitation Of Bachuma Gate-Maji Ya Chumvi (A109)"}}, {"geometry": {"type": "Point", "coordinates": [39.513272, -4.437633]}, "type": "Feature", "properties": {"objectives": 0, "description": 0, "title": 0}}, {"geometry": {"type": "Point", "coordinates": [39.5537975032, -4.34104483883]}, "type": "Feature", "properties": {"objectives": "Improve traffic flow", "description": "Constuction of By Pass (dongo Kundu)", "title": "Mombasa Port Area Road Development Project"}}, {"geometry": {"type": "Point", "coordinates": [39.5537975032, -4.34104483883]}, "type": "Feature", "properties": {"objectives": "To enhance the container handling capacity at the Port and to provide handling equipment", "description": "Expansion of the port through dvelopment of a new container Terminal", "title": "Mombasa Port Development (Phase I)"}}, {"geometry": {"type": "Point", "coordinates": [39.6129083288, -4.1065419236]}, "type": "Feature", "properties": {"objectives": "The objectives are:-\n-To capture Best Available practices and technologies (BAPs) and BATs) for contaminant reduction and sustainable collaborative tourism investments\n-to develop and implement mechanisms for sustainable governance and management that me", "description": "The project has be developed to demostrate best practices and strategies to reduce the degradation of Marine and ciastal environments of transboundary significanceand enhance sustinable tourism practices", "title": "The Management Of The Demonstrating Project Of Integrated Planning And Management To Sustainable Tourism At The Mombasa Coast"}}, {"geometry": {"type": "Point", "coordinates": [39.6129083288, -4.1065419236]}, "type": "Feature", "properties": {"objectives": "The objectives are:-\n-To capture Best Available practices and technologies (BAPs) and BATs) for contaminant reduction and sustainable collaborative tourism investments\n-to develop and implement mechanisms for sustainable governance and management that me", "description": "The project has be developed to demostrate best practices and strategies to reduce the degradation of Marine and ciastal environments of transboundary significanceand enhance sustinable tourism practices", "title": "The Management Of The Demonstrating Project Of Integrated Planning And Management To Sustainable Tourism At The Mombasa Coast"}}, {"geometry": {"type": "Point", "coordinates": [39.6622596325, -4.06168484425]}, "type": "Feature", "properties": {"objectives": "PROVISIONS OF NUTRITIOUS FOOD TO HIV/AIDS AFFECTED PERSONS IN KENYA SO THAT THEY ARE ABLE TO TAKE THEIR A.R.V s DRUGS", "description": "PROVISION OF NUTRITIOUS FOOD TO HIV/AIDS AFFECTED PERSONS IN KENYA", "title": "Nutrition And Care For Hiv/Aids Affected People"}}, {"geometry": {"type": "Point", "coordinates": [39.5537975032, -4.34104483883]}, "type": "Feature", "properties": {"objectives": "Electrification of 591 centres and about 35450 households in 66 constituencies accross Kenya.", "description": "Supply and construction of 19991 km of 33kV medium voltage distribution lines and 591 units of 33/0.415 kVA distribution transformers and 709 km of 415 V low voltage distribution lines.", "title": "Rural Electrification Project"}}, {"geometry": {"type": "Point", "coordinates": [39.5537975032, -4.34104483883]}, "type": "Feature", "properties": {"objectives": 0, "description": 0, "title": 0}}, {"geometry": {"type": "Point", "coordinates": [39.5537975032, -4.34104483883]}, "type": "Feature", "properties": {"objectives": 0, "description": 0, "title": 0}}, {"geometry": {"type": "Point", "coordinates": [39.5425802043, -4.3123660684]}, "type": "Feature", "properties": {"objectives": 0, "description": 0, "title": 0}}, {"geometry": {"type": "Point", "coordinates": [39.43447, -4.247234]}, "type": "Feature", "properties": {"objectives": "TO REDUCE POVERTY THROUGH ENSURING THE THE FOREST SECTOR CONTRIBUTES EFFECTIVELY AND SUSTAINABLY TO IMPROVE THE LIVES OF THE POOR,RESTORING THE ENVIRONMENT AND AIDING THE ECONOMIC RECOVERY AND GROWTH OF KENYA, WITHIN THE CONTEXT OF VISION 2030. WORKING T", "description": "ENSURE THE THE FOREST SECTOR CONTRIBUTES EFFECTIVELY AND SUSTAINABLY TO IMPROVE THE LIVES OF THE POOR, RESTORING THE ENVIRONMENT AND AIDING THE ECONOMIC RECOVERY AND GROWTH OF KENYA, WITHIN THE CONTEXT OF VISION 2030.", "title": "Miti Mingi Maisha Bora- Phase II"}}, {"geometry": {"type": "Point", "coordinates": [39.43447, -4.247234]}, "type": "Feature", "properties": {"objectives": 0, "description": 0, "title": 0}}, {"geometry": {"type": "Point", "coordinates": [39.43447, -4.247234]}, "type": "Feature", "properties": {"objectives": 0, "description": 0, "title": 0}}, {"geometry": {"type": "Point", "coordinates": [39.7752724743, -3.85079898141]}, "type": "Feature", "properties": {"objectives": "PROVISIONS OF NUTRITIOUS FOOD TO HIV/AIDS AFFECTED PERSONS IN KENYA SO THAT THEY ARE ABLE TO TAKE THEIR A.R.V s DRUGS", "description": "PROVISION OF NUTRITIOUS FOOD TO HIV/AIDS AFFECTED PERSONS IN KENYA", "title": "Nutrition And Care For Hiv/Aids Affected People"}}, {"geometry": {"type": "Point", "coordinates": [38.946542327, -4.22490527152]}, "type": "Feature", "properties": {"objectives": 0, "description": 0, "title": 0}}, {"geometry": {"type": "Point", "coordinates": [39.5993902738, -4.17719984831]}, "type": "Feature", "properties": {"objectives": "The project objective is to help empower poor communities to access socio-economic services in order to reduce poverty and to improve the management of local socio-economic development.", "description": "The project comprises of two components; \ni) Capacity building component which aims at developing the capacity of communities and other local level stakeholders to make better, more focused and equitable use of resources made available through Devolved f", "title": "Community Empowerement And Institutional Support Project (CEISP)"}}, {"geometry": {"type": "Point", "coordinates": [39.6441351155, -4.11735732378]}, "type": "Feature", "properties": {"objectives": "The main Objective of the project is to rehabilitateLikoni Sub District Hospital to enhance its capacity and service delivery to the Kenyan Citizen.", "description": "This project entails construction of a maternity wards and supply of medical equipment in Likoni Sub District Hospital. The Project will be supported under Kenya Italy Debt for Development Programme (KIDDP)", "title": "Rehabilitation Of Likoni Sub District Hospital (Kiddp)"}}, {"geometry": {"type": "Point", "coordinates": [39.4191384701, -4.1135754319]}, "type": "Feature", "properties": {"objectives": "PEACE AND SUSTAINABLE HUMAN DEVELOPMENT.", "description": "Discovery of oil and minerals in Kenya needs the extractive sectors of Kenya be governed in more  participatory, equitable and sustainable  ways  to ensure  that they  contribute  to peace  and sustainable  human development.", "title": "Extractive Industries For Sustainable Development In Kenya"}}, {"geometry": {"type": "Point", "coordinates": [39.633642, -4.096603]}, "type": "Feature", "properties": {"objectives": 0, "description": 0, "title": 0}}, {"geometry": {"type": "Point", "coordinates": [39.633642, -4.096603]}, "type": "Feature", "properties": {"objectives": 0, "description": 0, "title": 0}}, {"geometry": {"type": "Point", "coordinates": [39.633642, -4.096603]}, "type": "Feature", "properties": {"objectives": 0, "description": 0, "title": 0}}, {"geometry": {"type": "Point", "coordinates": [39.6126011588, -4.06010276921]}, "type": "Feature", "properties": {"objectives": "To enhance the container handling capacity at the Port and to provide handling equipment", "description": "Expansion of the port through dvelopment of a new container Terminal", "title": "Mombasa Port Development (Phase I)"}}, {"geometry": {"type": "Point", "coordinates": [39.662015, -4.054007]}, "type": "Feature", "properties": {"objectives": "(i)     Improving quality and relevance of STI education programs\n(iii)   Strengthening human capital development for STI programs\n(iii)   Improving quality of applied knowledge and skills in environmental and natural resource management\n(iv)  Enhancing", "description": "The overall objective of the project is to contribute to high quality, education and training in STI.", "title": "Support To Enhancement Of Quality And Relevance In Higher Education, Science And Technology"}}, {"geometry": {"type": "Point", "coordinates": [39.662015, -4.054007]}, "type": "Feature", "properties": {"objectives": 0, "description": 0, "title": 0}}, {"geometry": {"type": "Point", "coordinates": [39.6875709053, -4.05374072164]}, "type": "Feature", "properties": {"objectives": 0, "description": 0, "title": 0}}, {"geometry": {"type": "Point", "coordinates": [39.6215328652, -4.05255473161]}, "type": "Feature", "properties": {"objectives": "The overall outcome of the programme shall be (1) enhance and mainstream inclusivenessof the poor and vulnerable in istitutional and policy framework and private sector participation in job-rich and pro-poor growth, and (2) empower the poor and vulnerabl", "description": "The overall outcome of the programme shall be (1) enhance and mainstream inclusivenessof the poor and vulnerable in istitutional and policy framework and private sector participation in job-rich and pro-poor growth, and (2) empower the poor and vulnerabl", "title": "Economic Empowerment Programme"}}, {"geometry": {"type": "Point", "coordinates": [39.6215328652, -4.05255473161]}, "type": "Feature", "properties": {"objectives": "TO ATTAIN MASTER PLAN FOR DEVELOPMENT OF DONGO KUNDU, MOMBASA SPECIAL ECONOMIC ZONE", "description": "MASTER PLAN FOR DEVELOPMENT OF DONGO KUNDU, MOMBASA SPECIAL ECONOMIC ZONE", "title": "THE PROJECT ON MASTER PLAN FOR DEVELOPMENT OF DONGO KUNDU, MOMBASA SPECIAL ECONOMIC ZONE"}}, {"geometry": {"type": "Point", "coordinates": [39.5824459544, -4.04038055944]}, "type": "Feature", "properties": {"objectives": "Improve traffic flow", "description": "Constuction of By Pass (dongo Kundu)", "title": "Mombasa Port Area Road Development Project"}}, {"geometry": {"type": "Point", "coordinates": [39.70406, -4.032749]}, "type": "Feature", "properties": {"objectives": 0, "description": 0, "title": 0}}, {"geometry": {"type": "Point", "coordinates": [39.615194, -4.029352]}, "type": "Feature", "properties": {"objectives": "TO PROVIIDE WATER TO ALL THE RESIDENTS OF MARIAKANI-KALOLENI", "description": "TO PROVIDE CLEAN AND SAFE WATER UNDER THE KENYA-ITALY DEBT DEVELOPMENT PROGRAMME", "title": "Mariakani-Kaloleni Water Supply Project"}}, {"geometry": {"type": "Point", "coordinates": [39.615194, -4.029352]}, "type": "Feature", "properties": {"objectives": "To have accces to quality education", "description": "The project will assist children from poor areas to have access to formal education", "title": "Primary And Secondary Education In Poor Areas (2010 65 838)"}}, {"geometry": {"type": "Point", "coordinates": [39.615194, -4.029352]}, "type": "Feature", "properties": {"objectives": "TO REDUCE MATERNAL DEATHS DURING PREGNANCY TO 0%", "description": "FINANCING OF THE VOUCHERS FOR MATERNITY CARE, FAMILY PLANNING AND RELATED SERVICES WITHIN THE FRAMEWORK OF THE OUTPUT BASED APPROACH", "title": "Programme Development Of The Health Sector Support To Health Finanacing Phase 3 &Nbsp;(2010 65 853)"}}, {"geometry": {"type": "Point", "coordinates": [39.615194, -4.029352]}, "type": "Feature", "properties": {"objectives": "Improvement in the adoption and implementation of standards in the food sector", "description": "Improve surveillance and risk analysis capabilities, strengthen the border inspection posts and their coordination and integration", "title": "Standards And Market Access Programme"}}, {"geometry": {"type": "Point", "coordinates": [39.615194, -4.029352]}, "type": "Feature", "properties": {"objectives": "To improve the Quality of Fish through laboratory testing", "description": "To competitiveness of Kenyan fish through laboratory testing", "title": "Development of Fish Quality Laboratories"}}, {"geometry": {"type": "Point", "coordinates": [39.615194, -4.029352]}, "type": "Feature", "properties": {"objectives": 0, "description": 0, "title": 0}}, {"geometry": {"type": "Point", "coordinates": [39.5957745368, -4.00986354923]}, "type": "Feature", "properties": {"objectives": "To improve the performance of the Judiciary to provide its services in the Project areas in a more effective and accountable manner.", "description": "Improve the performance of judiciary to provide its services in the project areas in a more effective and accountable manner.\nProject has four components:\ni) Court Administration and Case Management\nii) Judiciary Training and Staff Development\niii) Court", "title": "Judicial Preformance Improvement Project (JPIP)"}}, {"geometry": {"type": "Point", "coordinates": [39.7306053368, -4.00475509261]}, "type": "Feature", "properties": {"objectives": 0, "description": 0, "title": 0}}, {"geometry": {"type": "Point", "coordinates": [39.105589, -3.982132]}, "type": "Feature", "properties": {"objectives": 0, "description": 0, "title": 0}}, {"geometry": {"type": "Point", "coordinates": [39.685876, -3.973865]}, "type": "Feature", "properties": {"objectives": 0, "description": 0, "title": 0}}, {"geometry": {"type": "Point", "coordinates": [39.685876, -3.973865]}, "type": "Feature", "properties": {"objectives": 0, "description": 0, "title": 0}}, {"geometry": {"type": "Point", "coordinates": [39.685876, -3.973865]}, "type": "Feature", "properties": {"objectives": 0, "description": 0, "title": 0}}, {"geometry": {"type": "Point", "coordinates": [37.849463746, -2.41678433043]}, "type": "Feature", "properties": {"objectives": "Improvement of rural water supply", "description": "Improvement of rural water supply", "title": "Rural Water Supply Phase Ii"}}, {"geometry": {"type": "Point", "coordinates": [39.5597695122, -3.96656749201]}, "type": "Feature", "properties": {"objectives": "To reduce system losses, improve supply quality and reliability; increase access and connectivity.", "description": "320km 220kV, 132/33kV 3 No 23 MVA sub-stations at Malindi, Garsen and Lamu", "title": "Rabai - Malindi - Garsen - Lamu Transmission Line"}}, {"geometry": {"type": "Point", "coordinates": [39.607626, -3.906464]}, "type": "Feature", "properties": {"objectives": "to ensure the youth are equiped with survival skills", "description": "construction of village polytechbnics", "title": "Revitalization of Mkuajuni Youth Polytechnic"}}, {"geometry": {"type": "Point", "coordinates": [39.4705278446, -3.85983881209]}, "type": "Feature", "properties": {"objectives": 0, "description": 0, "title": 0}}, {"geometry": {"type": "Point", "coordinates": [39.7752724743, -3.85079898141]}, "type": "Feature", "properties": {"objectives": "ESTABLISH A NETWORK OF EFFICIENT, HIGH QUALITY,ACCESSIBLE PUBLIC HEALTH LABORATORIES FOR THE DIAGNOSIS AND SURVAILLANCE OF TUBERCULOSIS AND OTHER COMMUNICABLE DISEASES", "description": "REHABILITATION,EXPANSION AND CONSTRUCTION OF 5 SATELITE LABORATORIES TO EXPAND DIAGNOSTIC SERVICES\nDEVELOP CAPACITYOF LABORATORY PERSONEL\nCARRYING OUT OPERATIONAL REASEARCH AND FACILITATE KNOWLEDGE SHARING", "title": "East Africa Public Health Laboratory Network Project (EAPLHP)"}}, {"geometry": {"type": "Point", "coordinates": [39.124801883, -3.82902007209]}, "type": "Feature", "properties": {"objectives": "#NAME?", "description": "Opening up of 24KM access road , construction of a water pan for water conservation and a dam", "title": "Mackinon Settlement Scheme"}}, {"geometry": {"type": "Point", "coordinates": [39.7171749304, -3.81741073164]}, "type": "Feature", "properties": {"objectives": 0, "description": 0, "title": 0}}, {"geometry": {"type": "Point", "coordinates": [38.5748425042, -3.81130959531]}, "type": "Feature", "properties": {"objectives": "training of the youth to enable them be self suffienct in survival skills", "description": "construction and rehabilitation of village polytechnics", "title": "Mariakani Youth Polytechnic"}}, {"geometry": {"type": "Point", "coordinates": [39.526531, -3.762841]}, "type": "Feature", "properties": {"objectives": "To open up the area for efficient trade and commerce.", "description": "This project road is situated in kilifi County and measures 35km in length. It involves upgrading the road to bitumen standards and maintenance of works during construction..", "title": "Kaloleni Kilifi"}}, {"geometry": {"type": "Point", "coordinates": [39.526531, -3.762841]}, "type": "Feature", "properties": {"objectives": 0, "description": 0, "title": 0}}, {"geometry": {"type": "Point", "coordinates": [38.338915, -3.721708]}, "type": "Feature", "properties": {"objectives": "TO REDUCE POVERTY THROUGH ENSURING THE THE FOREST SECTOR CONTRIBUTES EFFECTIVELY AND SUSTAINABLY TO IMPROVE THE LIVES OF THE POOR,RESTORING THE ENVIRONMENT AND AIDING THE ECONOMIC RECOVERY AND GROWTH OF KENYA, WITHIN THE CONTEXT OF VISION 2030. WORKING T", "description": "ENSURE THE THE FOREST SECTOR CONTRIBUTES EFFECTIVELY AND SUSTAINABLY TO IMPROVE THE LIVES OF THE POOR, RESTORING THE ENVIRONMENT AND AIDING THE ECONOMIC RECOVERY AND GROWTH OF KENYA, WITHIN THE CONTEXT OF VISION 2030.", "title": "Miti Mingi Maisha Bora- Phase II"}}, {"geometry": {"type": "Point", "coordinates": [38.338915, -3.721708]}, "type": "Feature", "properties": {"objectives": "The objective of the project is to develop the priority road corridor between Arusha in Tanzania and Voi, and onward to Mombasa Port in Kenya in order to reduce transport costs and facilitate cross-border trade, enhance tourism and improve accessibility", "description": "This project entails development of a priority road corridor between Arusha in Tanzania and Voi in Kenya, and onwards to Mombasa Port. The project has the following components as described below:\n\ufffd\ufffd\ufffd\ufffd\ufffd_Civil Works \ufffd\ufffd\ufffd\ufffd\u032b Involves construction of Mwatate-Taveta", "title": "UPGRADING OF MWATATE-TAVETA ROAD PROJECT (MULTINATIONAL: ARUSHA-HOLILI/TAVETA-VOI ROAD PROJECT)"}}, {"geometry": {"type": "Point", "coordinates": [39.6808437006, -3.63657665318]}, "type": "Feature", "properties": {"objectives": 0, "description": 0, "title": 0}}, {"geometry": {"type": "Point", "coordinates": [38.4612835676, -3.61032360856]}, "type": "Feature", "properties": {"objectives": 0, "description": 0, "title": 0}}, {"geometry": {"type": "Point", "coordinates": [38.2205521305, -3.60479914366]}, "type": "Feature", "properties": {"objectives": 0, "description": 0, "title": 0}}, {"geometry": {"type": "Point", "coordinates": [39.8176257762, -3.5869782499]}, "type": "Feature", "properties": {"objectives": "To facilitate teaching, learning and Research.", "description": "Works generally consists of excavations, substructure, R.C. superstructure works, walling, doors, windows, finishes with ceramic tiles in floor surfaces, fictures and fittings, external drainage, civil works and associated mechanical and electrical insta", "title": "Library Phase One"}}, {"geometry": {"type": "Point", "coordinates": [39.8176257762, -3.5869782499]}, "type": "Feature", "properties": {"objectives": 0, "description": 0, "title": 0}}, {"geometry": {"type": "Point", "coordinates": [39.8176257762, -3.5869782499]}, "type": "Feature", "properties": {"objectives": 0, "description": 0, "title": 0}}, {"geometry": {"type": "Point", "coordinates": [39.8176257762, -3.5869782499]}, "type": "Feature", "properties": {"objectives": 0, "description": 0, "title": 0}}, {"geometry": {"type": "Point", "coordinates": [39.8176257762, -3.5869782499]}, "type": "Feature", "properties": {"objectives": 0, "description": 0, "title": 0}}, {"geometry": {"type": "Point", "coordinates": [39.8176257762, -3.5869782499]}, "type": "Feature", "properties": {"objectives": 0, "description": 0, "title": 0}}, {"geometry": {"type": "Point", "coordinates": [39.8176257762, -3.5869782499]}, "type": "Feature", "properties": {"objectives": 0, "description": 0, "title": 0}}, {"geometry": {"type": "Point", "coordinates": [39.8176257762, -3.5869782499]}, "type": "Feature", "properties": {"objectives": 0, "description": 0, "title": 0}}, {"geometry": {"type": "Point", "coordinates": [39.8176257762, -3.5869782499]}, "type": "Feature", "properties": {"objectives": 0, "description": 0, "title": 0}}, {"geometry": {"type": "Point", "coordinates": [39.8176257762, -3.5869782499]}, "type": "Feature", "properties": {"objectives": 0, "description": 0, "title": 0}}, {"geometry": {"type": "Point", "coordinates": [39.8801965708, -3.56811308275]}, "type": "Feature", "properties": {"objectives": 0, "description": 0, "title": 0}}, {"geometry": {"type": "Point", "coordinates": [39.88955, -3.463441]}, "type": "Feature", "properties": {"objectives": "TO UPGRADE INFRASTRUCTURE FACILITIES IN KILIFI", "description": "TO IMPROVE INFRASTRUCTURE IN THE SLUM AREAS OF KILIFI", "title": "KKB Settlement Infrastructure Improvement Programme"}}, {"geometry": {"type": "Point", "coordinates": [39.88955, -3.463441]}, "type": "Feature", "properties": {"objectives": "TO ENSURE THAT THE LIVELIHOOD OF THE RESIDENTS ARE IMPROVED", "description": "TO UPGRADE INFRASTRUCTURE IN THE SLUMS OF KILIFI", "title": "Slum Upgrading In Kilifi"}}, {"geometry": {"type": "Point", "coordinates": [39.88955, -3.463441]}, "type": "Feature", "properties": {"objectives": "Improvement in the adoption and implementation of standards in the food sector", "description": "Improve surveillance and risk analysis capabilities, strengthen the border inspection posts and their coordination and integration", "title": "Standards And Market Access Programme"}}, {"geometry": {"type": "Point", "coordinates": [39.88955, -3.463441]}, "type": "Feature", "properties": {"objectives": "TO ENHANCE THE SKILLS OF THE YOUTH", "description": "CARRY OUT NEEDS ASSESSMENT SURVEY, PROCURE TOOLS, EQUIPMENT AND FURNITURE, TRAINING ON INVENTORY, USAGE AND MAINTENCE, M&E", "title": "Provision of Tools, Equipments and Furniture For Completed Polytechnics"}}, {"geometry": {"type": "Point", "coordinates": [39.88955, -3.463441]}, "type": "Feature", "properties": {"objectives": "Provide social services in informal settlements", "description": "Construction of multipurpose hall in Malindi", "title": "Construction Of Multipurpose Hall In Malindi"}}, {"geometry": {"type": "Point", "coordinates": [39.88955, -3.463441]}, "type": "Feature", "properties": {"objectives": "TO IMPROVE THE QUALITY OF TECHNICAL SKILLS OF THE INSTRUCTORS", "description": "TO BUILD THE CAPACITY OF INSTRUCTORS IN 18 YPS BEING ASSISTED THROUGH KIDDP", "title": "Capacity Building In 18yp'S"}}, {"geometry": {"type": "Point", "coordinates": [39.88955, -3.463441]}, "type": "Feature", "properties": {"objectives": "To raise registration coverage for births and deaths to 100%", "description": "A forum to bring together all Civil Registration and Vital Statistics (CRVS) stakeholders in Kilifi county", "title": "County Forum in Kilifi"}}, {"geometry": {"type": "Point", "coordinates": [39.88955, -3.463441]}, "type": "Feature", "properties": {"objectives": 0, "description": 0, "title": 0}}, {"geometry": {"type": "Point", "coordinates": [39.510797, -3.455096]}, "type": "Feature", "properties": {"objectives": "to ensure that the youth are trained in life saving skills", "description": "construction and rehabilitation of village polytechnics", "title": "Vitengeni Youth Polytechnic"}}, {"geometry": {"type": "Point", "coordinates": [37.95963, -3.427527]}, "type": "Feature", "properties": {"objectives": "Improvement in the adoption and implementation of standards in the food sector", "description": "Improve surveillance and risk analysis capabilities, strengthen the border inspection posts and their coordination and integration", "title": "Standards And Market Access Programme"}}, {"geometry": {"type": "Point", "coordinates": [37.95963, -3.427527]}, "type": "Feature", "properties": {"objectives": "Project will contribute to the reduction of poverty and promote regional intergration", "description": "The project is to develop the road corridor between Arusha in Tanzania and Voi, and to Mombasa port in Kenya", "title": "Arusha-Holili/Taveta-Voi Road Project"}}, {"geometry": {"type": "Point", "coordinates": [37.95963, -3.427527]}, "type": "Feature", "properties": {"objectives": "To enhance accessibility for easier movement of goods and services", "description": "The project works are located in Taita Taveta county and the road measures approximately 91 km", "title": "Voi-Mwatate (A23)"}}, {"geometry": {"type": "Point", "coordinates": [37.95963, -3.427527]}, "type": "Feature", "properties": {"objectives": "The objective of the project is to develop the priority road corridor between Arusha in Tanzania and Voi, and onward to Mombasa Port in Kenya in order to reduce transport costs and facilitate cross-border trade, enhance tourism and improve accessibility", "description": "This project entails development of a priority road corridor between Arusha in Tanzania and Voi in Kenya, and onwards to Mombasa Port. The project has the following components as described below:\n\ufffd\ufffd\ufffd\ufffd\ufffd_Civil Works \ufffd\ufffd\ufffd\ufffd\u032b Involves construction of Mwatate-Taveta", "title": "UPGRADING OF MWATATE-TAVETA ROAD PROJECT (MULTINATIONAL: ARUSHA-HOLILI/TAVETA-VOI ROAD PROJECT)"}}, {"geometry": {"type": "Point", "coordinates": [37.95963, -3.427527]}, "type": "Feature", "properties": {"objectives": 0, "description": 0, "title": 0}}, {"geometry": {"type": "Point", "coordinates": [38.648865, -3.365975]}, "type": "Feature", "properties": {"objectives": "To complete the construction of sports and other facilities that had stalled in Voi PTTC(pavilion, swimming pool, landscaping, play grounds and sports fields, walkways, storm water drainage, roads and car parks, fencing and gates and associated electrica", "description": "The project entails the completion of facilities at Voi PTTC including pavilion, swimming pool, landscaping, play grounds and sports fields, walkways, storm water drainage, roads and car parks, fencing and gates and associated electrical and mechanical w", "title": "Voi Primary Teachers Training College (Pttc) Phase I"}}, {"geometry": {"type": "Point", "coordinates": [38.648865, -3.365975]}, "type": "Feature", "properties": {"objectives": "The objective of the project is to develop the priority road corridor between Arusha in Tanzania and Voi, and onward to Mombasa Port in Kenya in order to reduce transport costs and facilitate cross-border trade, enhance tourism and improve accessibility", "description": "This project entails development of a priority road corridor between Arusha in Tanzania and Voi in Kenya, and onwards to Mombasa Port. The project has the following components as described below:\n\ufffd\ufffd\ufffd\ufffd\ufffd_Civil Works \ufffd\ufffd\ufffd\ufffd\u032b Involves construction of Mwatate-Taveta", "title": "UPGRADING OF MWATATE-TAVETA ROAD PROJECT (MULTINATIONAL: ARUSHA-HOLILI/TAVETA-VOI ROAD PROJECT)"}}, {"geometry": {"type": "Point", "coordinates": [39.657216778, -3.3416168735]}, "type": "Feature", "properties": {"objectives": "Electrification of 591 centres and about 35450 households in 66 constituencies accross Kenya.", "description": "Supply and construction of 19991 km of 33kV medium voltage distribution lines and 591 units of 33/0.415 kVA distribution transformers and 709 km of 415 V low voltage distribution lines.", "title": "Rural Electrification Project"}}, {"geometry": {"type": "Point", "coordinates": [40.1180718325, -3.25695047064]}, "type": "Feature", "properties": {"objectives": 0, "description": 0, "title": 0}}, {"geometry": {"type": "Point", "coordinates": [40.1180718325, -3.25695047064]}, "type": "Feature", "properties": {"objectives": 0, "description": 0, "title": 0}}, {"geometry": {"type": "Point", "coordinates": [40.1180718325, -3.25695047064]}, "type": "Feature", "properties": {"objectives": 0, "description": 0, "title": 0}}, {"geometry": {"type": "Point", "coordinates": [37.9792722898, -3.24244532144]}, "type": "Feature", "properties": {"objectives": "The project objective is to help empower poor communities to access socio-economic services in order to reduce poverty and to improve the management of local socio-economic development.", "description": "The project comprises of two components; \ni) Capacity building component which aims at developing the capacity of communities and other local level stakeholders to make better, more focused and equitable use of resources made available through Devolved f", "title": "Community Empowerement And Institutional Support Project (CEISP)"}}, {"geometry": {"type": "Point", "coordinates": [40.0878107975, -3.23669452107]}, "type": "Feature", "properties": {"objectives": "The projects aims at rehabilitating and extensions of water and sewerage infrastructure for Mombasa city.", "description": "The project is meant to supply safe and clean water to the City of Mombasa and its environs through expansion and rehabilitation of water supply and sewerage systems.", "title": "Coast Water & Sanitation Programme"}}, {"geometry": {"type": "Point", "coordinates": [40.0878107975, -3.23669452107]}, "type": "Feature", "properties": {"objectives": "Promote conservation and biodiversity management in Coastal region", "description": "Support implementation of forest co-management initiative, butterfly farming, biodiversity and conservation efforts in Kenya's coastal area.", "title": "National Museums Of Kenya (Nmk): Kipepeo Butterfly Project, Malindi."}}, {"geometry": {"type": "Point", "coordinates": [40.0878107975, -3.23669452107]}, "type": "Feature", "properties": {"objectives": 0, "description": 0, "title": 0}}, {"geometry": {"type": "Point", "coordinates": [39.8286710656, -3.23428977466]}, "type": "Feature", "properties": {"objectives": "#NAME?", "description": "Opening up of 18KM access roads and laying of pipes for 20KM for supply of water", "title": "Chakama Settlement Scheme Project"}}, {"geometry": {"type": "Point", "coordinates": [39.8286710656, -3.23428977466]}, "type": "Feature", "properties": {"objectives": 0, "description": 0, "title": 0}}, {"geometry": {"type": "Point", "coordinates": [39.9873383743, -3.21837958605]}, "type": "Feature", "properties": {"objectives": 0, "description": 0, "title": 0}}, {"geometry": {"type": "Point", "coordinates": [39.914257, -3.214043]}, "type": "Feature", "properties": {"objectives": "To improve security of the dwellers by lighting the neighborhood.", "description": "High mast floodlighting structures distributed in the following slums as follows:- Bungoma (3), Nyahururu(3), Maua(3), Embu (3) and Malindi (3) .", "title": "Installation Of &Nbsp;High Mast Floodlighting Structures"}}, {"geometry": {"type": "Point", "coordinates": [39.914257, -3.214043]}, "type": "Feature", "properties": {"objectives": "reproductive and maternal health services", "description": "reproductive and maternal health services", "title": "Ministry of Health -reproductive and maternal health services"}}, {"geometry": {"type": "Point", "coordinates": [40.1064439586, -3.19581196007]}, "type": "Feature", "properties": {"objectives": 0, "description": 0, "title": 0}}, {"geometry": {"type": "Point", "coordinates": [40.1064439586, -3.19581196007]}, "type": "Feature", "properties": {"objectives": 0, "description": 0, "title": 0}}, {"geometry": {"type": "Point", "coordinates": [40.0936107971, -3.14036947176]}, "type": "Feature", "properties": {"objectives": 0, "description": 0, "title": 0}}, {"geometry": {"type": "Point", "coordinates": [39.8880405701, -3.11239894929]}, "type": "Feature", "properties": {"objectives": 0, "description": 0, "title": 0}}, {"geometry": {"type": "Point", "coordinates": [37.7270111646, -3.07036352357]}, "type": "Feature", "properties": {"objectives": "To improve the performance of the Judiciary to provide its services in the Project areas in a more effective and accountable manner.", "description": "Improve the performance of judiciary to provide its services in the project areas in a more effective and accountable manner.\nProject has four components:\ni) Court Administration and Case Management\nii) Judiciary Training and Staff Development\niii) Court", "title": "Judicial Preformance Improvement Project (JPIP)"}}, {"geometry": {"type": "Point", "coordinates": [40.1176410184, -2.99354199738]}, "type": "Feature", "properties": {"objectives": 0, "description": 0, "title": 0}}, {"geometry": {"type": "Point", "coordinates": [39.6754623968, -2.88271572833]}, "type": "Feature", "properties": {"objectives": 0, "description": 0, "title": 0}}, {"geometry": {"type": "Point", "coordinates": [38.2932810115, -2.72270629043]}, "type": "Feature", "properties": {"objectives": "FASTER AND ACCURATE DIAGNOSIS\nEFFICIENT AND EFFECTIVE SERVICES\nREDUCE FINANCIAL BURDEN BY REDUCING REFERRALS\nSAVING ON TIME SPENT SEEKING MEDICAL SERVICES", "description": "PURCHASE OF MEDICAL EQUIPMENTS.", "title": "MEDICAL EQUIPMENTS(INCLUDING X-RAY)"}}, {"geometry": {"type": "Point", "coordinates": [38.2932810115, -2.72270629043]}, "type": "Feature", "properties": {"objectives": "Promote local trade", "description": "Construction of a market shed", "title": "Kambu Market shed"}}, {"geometry": {"type": "Point", "coordinates": [38.2932810115, -2.72270629043]}, "type": "Feature", "properties": {"objectives": 0, "description": 0, "title": 0}}, {"geometry": {"type": "Point", "coordinates": [38.2932810115, -2.72270629043]}, "type": "Feature", "properties": {"objectives": 0, "description": 0, "title": 0}}, {"geometry": {"type": "Point", "coordinates": [38.0054365848, -2.68485142927]}, "type": "Feature", "properties": {"objectives": "FASTER AND ACCURATE DIAGNOSIS\nEFFICIENT AND EFFECTIVE SERVICES\nREDUCE FINANCIAL BURDEN BY REDUCING REFERRALS\nSAVING ON TIME SPENT SEEKING MEDICAL SERVICES", "description": "PURCHASE OF MEDICAL EQUIPMENTS.", "title": "MEDICAL EQUIPMENTS(INCLUDING X-RAY)"}}, {"geometry": {"type": "Point", "coordinates": [38.0054365848, -2.68485142927]}, "type": "Feature", "properties": {"objectives": "TO PROVIIDE BASIC INVESTIGATIONS THROUGH LABORATORY SERVICES.\nTO TREAT MINOR CASES.\nTO DIAGNOSE AND REFER DIFFICULT CASES FOR FURTHER MANAGEMENT.\nTO DIAGNOSE EARLY FOR CASE MANAGEMENT INSTEAD OF WAITING FOR LATE STAGES.", "description": "TO CONDUCT MEDICAL OUTREACHES IN THE SIX SUB-COUNTIES", "title": "MEDICAL OUTREACH CAMPAIGNS"}}, {"geometry": {"type": "Point", "coordinates": [38.0054365848, -2.68485142927]}, "type": "Feature", "properties": {"objectives": "Promote local trade through provision of better shelter for trading", "description": "Construction of a market shed", "title": "Nthongoni Market sheds"}}, {"geometry": {"type": "Point", "coordinates": [38.0054365848, -2.68485142927]}, "type": "Feature", "properties": {"objectives": 0, "description": 0, "title": 0}}, {"geometry": {"type": "Point", "coordinates": [37.470775, -2.659054]}, "type": "Feature", "properties": {"objectives": 0, "description": 0, "title": 0}}, {"geometry": {"type": "Point", "coordinates": [37.470775, -2.659054]}, "type": "Feature", "properties": {"objectives": 0, "description": 0, "title": 0}}, {"geometry": {"type": "Point", "coordinates": [37.470775, -2.659054]}, "type": "Feature", "properties": {"objectives": 0, "description": 0, "title": 0}}, {"geometry": {"type": "Point", "coordinates": [37.7257149676, -1.42671183286]}, "type": "Feature", "properties": {"objectives": "Improvement of rural water supply", "description": "Improvement of rural water supply", "title": "Rural Water Supply Phase Ii"}}, {"geometry": {"type": "Point", "coordinates": [38.145708, -2.610426]}, "type": "Feature", "properties": {"objectives": "To ensure that all the county administartion units are automated and inter-connected for efficiency", "description": "ict for development and innovation", "title": "ICT FOR DEVELOPMENT"}}, {"geometry": {"type": "Point", "coordinates": [38.145708, -2.610426]}, "type": "Feature", "properties": {"objectives": "to reduce likelihood of loss of lives", "description": "provision of supplies and rations during times of distress", "title": "Drought Mitigation &  Response"}}, {"geometry": {"type": "Point", "coordinates": [38.145708, -2.610426]}, "type": "Feature", "properties": {"objectives": "To improve the management of solid waste in the county", "description": "Design mechanism for solid waste mangement", "title": "Waste Management"}}, {"geometry": {"type": "Point", "coordinates": [38.145708, -2.610426]}, "type": "Feature", "properties": {"objectives": "to sanitize the land registry", "description": "creating of County Digital land Data base", "title": "Land Data Digitization"}}, {"geometry": {"type": "Point", "coordinates": [38.145708, -2.610426]}, "type": "Feature", "properties": {"objectives": "Improve access to the institution", "description": "Grading and bush clearing", "title": "Grading of Lukenya University roads"}}, {"geometry": {"type": "Point", "coordinates": [38.145708, -2.610426]}, "type": "Feature", "properties": {"objectives": "To empower the dairy farmers", "description": "Promotion of dairy farming in the county", "title": "Dairy Development"}}, {"geometry": {"type": "Point", "coordinates": [38.145708, -2.610426]}, "type": "Feature", "properties": {"objectives": 0, "description": 0, "title": 0}}, {"geometry": {"type": "Point", "coordinates": [38.145708, -2.610426]}, "type": "Feature", "properties": {"objectives": 0, "description": 0, "title": 0}}, {"geometry": {"type": "Point", "coordinates": [38.145708, -2.610426]}, "type": "Feature", "properties": {"objectives": 0, "description": 0, "title": 0}}, {"geometry": {"type": "Point", "coordinates": [38.145708, -2.610426]}, "type": "Feature", "properties": {"objectives": 0, "description": 0, "title": 0}}, {"geometry": {"type": "Point", "coordinates": [36.6551226378, -1.35041041318]}, "type": "Feature", "properties": {"objectives": "The objective of this project is to extract power from Ngong Wind Power Plant in order to ensure that there is adequate, reliable, quality, affordable, sustainable and secure energy.", "description": "This project is meant to Supply and Installation of additional 13.6 MW wind farm in Ngong forest by tapping  the green energy, wind potential prevalent in ngong area in order to provide additional power to the National grid and hence  Increasing  the nat", "title": "13.6 MW Ngong II Wind Energy Project"}}, {"geometry": {"type": "Point", "coordinates": [38.5008357248, -2.6028991117]}, "type": "Feature", "properties": {"objectives": "The project objective is to help empower poor communities to access socio-economic services in order to reduce poverty and to improve the management of local socio-economic development.", "description": "The project comprises of two components; \ni) Capacity building component which aims at developing the capacity of communities and other local level stakeholders to make better, more focused and equitable use of resources made available through Devolved f", "title": "Community Empowerement And Institutional Support Project (CEISP)"}}, {"geometry": {"type": "Point", "coordinates": [37.9555023284, -2.52509680494]}, "type": "Feature", "properties": {"objectives": "Electrification of 591 centres and about 35450 households in 66 constituencies accross Kenya.", "description": "Supply and construction of 19991 km of 33kV medium voltage distribution lines and 591 units of 33/0.415 kVA distribution transformers and 709 km of 415 V low voltage distribution lines.", "title": "Rural Electrification Project"}}, {"geometry": {"type": "Point", "coordinates": [37.9555023284, -2.52509680494]}, "type": "Feature", "properties": {"objectives": 0, "description": 0, "title": 0}}, {"geometry": {"type": "Point", "coordinates": [40.5276096383, -2.50400495009]}, "type": "Feature", "properties": {"objectives": "The project objective is to help empower poor communities to access socio-economic services in order to reduce poverty and to improve the management of local socio-economic development.", "description": "The project comprises of two components; \ni) Capacity building component which aims at developing the capacity of communities and other local level stakeholders to make better, more focused and equitable use of resources made available through Devolved f", "title": "Community Empowerement And Institutional Support Project (CEISP)"}}, {"geometry": {"type": "Point", "coordinates": [40.5276096383, -2.50400495009]}, "type": "Feature", "properties": {"objectives": "To improve the performance of the Judiciary to provide its services in the Project areas in a more effective and accountable manner.", "description": "Improve the performance of judiciary to provide its services in the project areas in a more effective and accountable manner.\nProject has four components:\ni) Court Administration and Case Management\nii) Judiciary Training and Staff Development\niii) Court", "title": "Judicial Preformance Improvement Project (JPIP)"}}, {"geometry": {"type": "Point", "coordinates": [38.1601237728, -2.46788974084]}, "type": "Feature", "properties": {"objectives": "FASTER AND ACCURATE DIAGNOSIS\nEFFICIENT AND EFFECTIVE SERVICES\nREDUCE FINANCIAL BURDEN BY REDUCING REFERRALS\nSAVING ON TIME SPENT SEEKING MEDICAL SERVICES", "description": "PURCHASE OF MEDICAL EQUIPMENTS.", "title": "MEDICAL EQUIPMENTS(INCLUDING X-RAY)"}}, {"geometry": {"type": "Point", "coordinates": [38.1601237728, -2.46788974084]}, "type": "Feature", "properties": {"objectives": "Improve hygiene in the markets", "description": "Construction of public pit latrines in the markets", "title": "Public Latrines at Ulilinzi and Kativani"}}, {"geometry": {"type": "Point", "coordinates": [38.1601237728, -2.46788974084]}, "type": "Feature", "properties": {"objectives": "To promote horticultural farming in the area", "description": "Construction of Mikuyuni/Miumoni river sand dam in Masongaleni ward", "title": "Mikuyuni/Miumoni river sand dam"}}, {"geometry": {"type": "Point", "coordinates": [38.1601237728, -2.46788974084]}, "type": "Feature", "properties": {"objectives": "To increase the county's revenue base", "description": "To carry out an extensive research and Feasibility study on existing mineral and their economic viability if available", "title": "Feasibility study on existing mineral"}}, {"geometry": {"type": "Point", "coordinates": [38.1601237728, -2.46788974084]}, "type": "Feature", "properties": {"objectives": 0, "description": 0, "title": 0}}, {"geometry": {"type": "Point", "coordinates": [40.0901594339, -2.44077939351]}, "type": "Feature", "properties": {"objectives": "To reduce system losses, improve supply quality and reliability; increase access and connectivity.", "description": "320km 220kV, 132/33kV 3 No 23 MVA sub-stations at Malindi, Garsen and Lamu", "title": "Rabai - Malindi - Garsen - Lamu Transmission Line"}}, {"geometry": {"type": "Point", "coordinates": [37.849463746, -2.41678433043]}, "type": "Feature", "properties": {"objectives": "TO PROVIIDE BASIC INVESTIGATIONS THROUGH LABORATORY SERVICES.\nTO TREAT MINOR CASES.\nTO DIAGNOSE AND REFER DIFFICULT CASES FOR FURTHER MANAGEMENT.\nTO DIAGNOSE EARLY FOR CASE MANAGEMENT INSTEAD OF WAITING FOR LATE STAGES.", "description": "TO CONDUCT MEDICAL OUTREACHES IN THE SIX SUB-COUNTIES", "title": "MEDICAL OUTREACH CAMPAIGNS"}}, {"geometry": {"type": "Point", "coordinates": [37.849463746, -2.41678433043]}, "type": "Feature", "properties": {"objectives": "To promote local trade", "description": "Construction of a market shed", "title": "Kiunduani market shed"}}, {"geometry": {"type": "Point", "coordinates": [37.849463746, -2.41678433043]}, "type": "Feature", "properties": {"objectives": "To conserve and reclaim denuded lands", "description": "Construction of gabions and soil conservation", "title": "Soil  & water conservation"}}, {"geometry": {"type": "Point", "coordinates": [37.849463746, -2.41678433043]}, "type": "Feature", "properties": {"objectives": "Improve access and communication", "description": "Bush clearing and grading of access roads - 28.3 Kms", "title": "Grading of nguumo ward access roads"}}, {"geometry": {"type": "Point", "coordinates": [37.849463746, -2.41678433043]}, "type": "Feature", "properties": {"objectives": 0, "description": 0, "title": 0}}, {"geometry": {"type": "Point", "coordinates": [37.9959189075, -2.3809670581]}, "type": "Feature", "properties": {"objectives": "To reduce distance to a water point", "description": "construction of Kikumbulyu south-earth dam(Kyanginywa)", "title": "Kikumbulyu south-earth dam(Kyanginywa)"}}, {"geometry": {"type": "Point", "coordinates": [37.9959189075, -2.3809670581]}, "type": "Feature", "properties": {"objectives": 0, "description": 0, "title": 0}}, {"geometry": {"type": "Point", "coordinates": [40.2069640196, -2.34176446591]}, "type": "Feature", "properties": {"objectives": "To improve the management of Kenya protected areass; \nTo strengthen the capacity of KWS to implement integrated land/seascape biodiversity conservation program' and \nTo facilitate adoption of policies that will promote improved wildlife management and bi", "description": "USAID support to KWS targets to improve the management of Kenya protected areas; strengthen the capacity of KWS to implement integrated land/seascape biodiversity conservation program; facilitate adoption of policies that will promote improved wildlife m", "title": "Kenya Wildlife Services (Kws) Conservation Project"}}, {"geometry": {"type": "Point", "coordinates": [39.510779, -2.338069]}, "type": "Feature", "properties": {"objectives": "To support the transport the implementation of KWS Strategic Plan specifically the under utilized parks initiative and thereby expand the range of options for wildlife tourism and alleviate pressure on over-exploited ecossystems in major national parks a", "description": "Works Contract for the construction of a 220 meter long steel panel bridge across Galana River to open up the northern half of Tsavo East National Park, Supervision of works, project evaluation and audit", "title": "Improving Access In Kenya's National Parks (Bridge Over The Galana River)"}}, {"geometry": {"type": "Point", "coordinates": [36.8608642634, -1.26082117337]}, "type": "Feature", "properties": {"objectives": "PROVISIONS OF NUTRITIOUS FOOD TO HIV/AIDS AFFECTED PERSONS IN KENYA SO THAT THEY ARE ABLE TO TAKE THEIR A.R.V s DRUGS", "description": "PROVISION OF NUTRITIOUS FOOD TO HIV/AIDS AFFECTED PERSONS IN KENYA", "title": "Nutrition And Care For Hiv/Aids Affected People"}}, {"geometry": {"type": "Point", "coordinates": [39.510779, -2.338069]}, "type": "Feature", "properties": {"objectives": "Improvement in the adoption and implementation of standards in the food sector", "description": "Improve surveillance and risk analysis capabilities, strengthen the border inspection posts and their coordination and integration", "title": "Standards And Market Access Programme"}}, {"geometry": {"type": "Point", "coordinates": [39.510779, -2.338069]}, "type": "Feature", "properties": {"objectives": 0, "description": 0, "title": 0}}, {"geometry": {"type": "Point", "coordinates": [36.6909275267, -1.25520825066]}, "type": "Feature", "properties": {"objectives": "Road decongestion", "description": "Road decongestion", "title": "Construction Of Nairobi Southern Bypass"}}, {"geometry": {"type": "Point", "coordinates": [36.9053293338, -1.25161306922]}, "type": "Feature", "properties": {"objectives": "To improve access,quality, availablity, capacity and sustainability of waste water services in Nairobi through  the  rehabilitation and extension of sewerage services and waste water treatment", "description": "The components of the project are; Waste Infrastructure -covering rehabilitation and expansion of the sewerage network and treatment , Sanitation, Hygiene and Social environment support and Institutional Dev. Support", "title": "Nairobi Rivers Basin Rehabilitation And Restoration Program; Sewerage Improvement Project"}}, {"geometry": {"type": "Point", "coordinates": [38.020486492, -2.27751765489]}, "type": "Feature", "properties": {"objectives": "TO CURB WATER SHORTAGE", "description": "CONSTRUCTION OF TANKS AND PIPING", "title": "KWINYITHYA KIW'U WATER PROJECT"}}, {"geometry": {"type": "Point", "coordinates": [38.020486492, -2.27751765489]}, "type": "Feature", "properties": {"objectives": "To improve communication and connectivity", "description": "Bush clearing and grading of access roads - 77.9 Kms", "title": "Grading of Kikumbulyu North ward access roads"}}, {"geometry": {"type": "Point", "coordinates": [38.020486492, -2.27751765489]}, "type": "Feature", "properties": {"objectives": 0, "description": 0, "title": 0}}, {"geometry": {"type": "Point", "coordinates": [37.4555200018, -1.1758644824]}, "type": "Feature", "properties": {"objectives": "\ufffd\ufffd\ufffd\ufffd\ufffd_Establish a model for public \ufffd\ufffd\ufffd\ufffd\u032bprivate collaboration addressing hunger and poverty reduction which can be replicated or scaled to other regions\n\ufffd\ufffd\ufffd\ufffd\ufffd_Develop and implement commercially viable, potentially scalable business models which reduce hunger and", "description": "The Expanded Business Alliance Against Chronic Hunger (BAACH) Project aims at implementing an activity program for agri-business development with irrigation solutions for sustainable food security, economic empowerment and economic growth, through format", "title": "Expanded Business Alliance Against Chronic Hunger (BAACH)"}}, {"geometry": {"type": "Point", "coordinates": [38.020486492, -2.27751765489]}, "type": "Feature", "properties": {"objectives": 0, "description": 0, "title": 0}}, {"geometry": {"type": "Point", "coordinates": [37.7810681043, -2.2607972915]}, "type": "Feature", "properties": {"objectives": "FASTER AND ACCURATE DIAGNOSIS\nEFFICIENT AND EFFECTIVE SERVICES\nREDUCE FINANCIAL BURDEN BY REDUCING REFERRALS\nSAVING ON TIME SPENT SEEKING MEDICAL SERVICES", "description": "PURCHASE OF MEDICAL EQUIPMENTS.", "title": "MEDICAL EQUIPMENTS(INCLUDING X-RAY)"}}, {"geometry": {"type": "Point", "coordinates": [37.7810681043, -2.2607972915]}, "type": "Feature", "properties": {"objectives": "Promote trade in the market", "description": "Construction and operationalization", "title": "Kiboko market shed"}}, {"geometry": {"type": "Point", "coordinates": [37.7810681043, -2.2607972915]}, "type": "Feature", "properties": {"objectives": "Improve water availlability", "description": "Construction of a sand dam", "title": "Construction of Ituumo sand dam"}}, {"geometry": {"type": "Point", "coordinates": [37.7810681043, -2.2607972915]}, "type": "Feature", "properties": {"objectives": "Improve access and communication", "description": "Bush clearing and grading of access roads - 51.05 Kms (1.85 Kms under manual grading)", "title": "Makindu ward access roads grading and completion of Kilongoondolo bridge"}}, {"geometry": {"type": "Point", "coordinates": [37.7810681043, -2.2607972915]}, "type": "Feature", "properties": {"objectives": 0, "description": 0, "title": 0}}, {"geometry": {"type": "Point", "coordinates": [37.804837, -2.255991]}, "type": "Feature", "properties": {"objectives": "To ensure that all the county administartion units are automated and inter-connected for efficiency", "description": "ict for development and innovation", "title": "ICT FOR DEVELOPMENT"}}, {"geometry": {"type": "Point", "coordinates": [36.9214579739, -0.9114100832]}, "type": "Feature", "properties": {"objectives": "\ufffd\ufffd\ufffd\ufffd\ufffd_Establish a model for public \ufffd\ufffd\ufffd\ufffd\u032bprivate collaboration addressing hunger and poverty reduction which can be replicated or scaled to other regions\n\ufffd\ufffd\ufffd\ufffd\ufffd_Develop and implement commercially viable, potentially scalable business models which reduce hunger and", "description": "The Expanded Business Alliance Against Chronic Hunger (BAACH) Project aims at implementing an activity program for agri-business development with irrigation solutions for sustainable food security, economic empowerment and economic growth, through format", "title": "Expanded Business Alliance Against Chronic Hunger (BAACH)"}}, {"geometry": {"type": "Point", "coordinates": [36.3753270712, -0.89909668279]}, "type": "Feature", "properties": {"objectives": "To generate power for industrial and domestic use to minimize the huge energy gap that occurs currently occurs as we strive to get industralized by the year 2030", "description": "This is one of the projects in the greater Olkaria Goethermal Area (GOCA) located in the Rift Valley, near Lake naivasha in the Hell's gate National Park.\nThe scope of the project includes:\n-Engineering services with the preparation of concept and detail", "title": "Geothermal Olkaria I Unit 4 And 5 And Olkaria Iv Power Plants"}}, {"geometry": {"type": "Point", "coordinates": [36.3753270712, -0.89909668279]}, "type": "Feature", "properties": {"objectives": "To generate power for industrial and domestic use to minimize the huge energy gap that occurs currently occurs as we strive to get industralized by the year 2030", "description": "This is one of the projects in the greater Olkaria Goethermal Area (GOCA) located in the Rift Valley, near Lake naivasha in the Hell's gate National Park.\nThe scope of the project includes:\n-Engineering services with the preparation of concept and detail", "title": "Geothermal Olkaria I Unit 4 And 5 And Olkaria Iv Power Plants"}}, {"geometry": {"type": "Point", "coordinates": [36.3753270712, -0.89909668279]}, "type": "Feature", "properties": {"objectives": "To Add 140MW into the national grid", "description": "Geothermal Well drilling", "title": "Olkaria Iv Geothermal Field Production Drilling Project"}}, {"geometry": {"type": "Point", "coordinates": [35.6291293262, -0.88405214689]}, "type": "Feature", "properties": {"objectives": "To provide an additional transmission capacity to the National grid in order to address the increased power demand by ensuring that there is adequate, reliable, quality, affordable, sustainable and secure energy.", "description": "The project entails construction of a High Voltage Direct Current (HVDC) overhead transmission line to interconnect the Electricity network of Ethiopia, at Wolayta/Sodo substation, with the Kenya Network, at the Suswa Substation in order to increase the", "title": "ETHIOPIA - KENYA ELECTRICITY EXPANSION HIGHWAY PROJECT (EA INTERCONNECTOR)"}}, {"geometry": {"type": "Point", "coordinates": [37.804837, -2.255991]}, "type": "Feature", "properties": {"objectives": "Provide shelter and better environment for trade purposes", "description": "Construction and commissioning of the market shed", "title": "kinyambu market shed"}}, {"geometry": {"type": "Point", "coordinates": [37.804837, -2.255991]}, "type": "Feature", "properties": {"objectives": "Promote local trade", "description": "Construction of the market shed", "title": "Kathyaka Market shed"}}, {"geometry": {"type": "Point", "coordinates": [37.804837, -2.255991]}, "type": "Feature", "properties": {"objectives": "to reduce likelihood of loss of lives", "description": "provision of supplies and rations during times of distress", "title": "Drought Mitigation &  Response"}}, {"geometry": {"type": "Point", "coordinates": [37.804837, -2.255991]}, "type": "Feature", "properties": {"objectives": "To improve the management of solid waste in the county", "description": "Design mechanism for solid waste mangement", "title": "Waste Management"}}, {"geometry": {"type": "Point", "coordinates": [37.804837, -2.255991]}, "type": "Feature", "properties": {"objectives": "to sanitize the land registry", "description": "creating of County Digital land Data base", "title": "Land Data Digitization"}}, {"geometry": {"type": "Point", "coordinates": [37.804837, -2.255991]}, "type": "Feature", "properties": {"objectives": "To empower the dairy farmers", "description": "Promotion of dairy farming in the county", "title": "Dairy Development"}}, {"geometry": {"type": "Point", "coordinates": [37.804837, -2.255991]}, "type": "Feature", "properties": {"objectives": 0, "description": 0, "title": 0}}, {"geometry": {"type": "Point", "coordinates": [38.1460093173, -0.80837585167]}, "type": "Feature", "properties": {"objectives": "Improvement of rural water supply", "description": "Improvement of rural water supply", "title": "Rural Water Supply Phase Ii"}}, {"geometry": {"type": "Point", "coordinates": [37.804837, -2.255991]}, "type": "Feature", "properties": {"objectives": 0, "description": 0, "title": 0}}, {"geometry": {"type": "Point", "coordinates": [37.804837, -2.255991]}, "type": "Feature", "properties": {"objectives": 0, "description": 0, "title": 0}}, {"geometry": {"type": "Point", "coordinates": [37.804837, -2.255991]}, "type": "Feature", "properties": {"objectives": 0, "description": 0, "title": 0}}, {"geometry": {"type": "Point", "coordinates": [36.818126, -2.197986]}, "type": "Feature", "properties": {"objectives": "Generate energy for the national grid", "description": "Green enrgy generation", "title": "Ngong Hills Wind Power Project Phase Ii"}}, {"geometry": {"type": "Point", "coordinates": [36.818126, -2.197986]}, "type": "Feature", "properties": {"objectives": 0, "description": 0, "title": 0}}, {"geometry": {"type": "Point", "coordinates": [37.6284114682, -2.08493427876]}, "type": "Feature", "properties": {"objectives": "Promote local trade", "description": "Construction of a market shed", "title": "Kikumini Market shed"}}, {"geometry": {"type": "Point", "coordinates": [37.6284114682, -2.08493427876]}, "type": "Feature", "properties": {"objectives": 0, "description": 0, "title": 0}}, {"geometry": {"type": "Point", "coordinates": [37.6284114682, -2.08493427876]}, "type": "Feature", "properties": {"objectives": 0, "description": 0, "title": 0}}, {"geometry": {"type": "Point", "coordinates": [37.5048160322, -2.04527494713]}, "type": "Feature", "properties": {"objectives": "To provide holding grounds for livestock", "description": "Construction of a market shed and a toilet", "title": "Emali livestock yard/ Fencing open air Market with toilet"}}, {"geometry": {"type": "Point", "coordinates": [37.5048160322, -2.04527494713]}, "type": "Feature", "properties": {"objectives": "To improve food production", "description": "construction of Mwasa ngombe sand dam town and Emali  survey", "title": "Mwasa ngombe sand dam/Emali survey"}}, {"geometry": {"type": "Point", "coordinates": [37.5048160322, -2.04527494713]}, "type": "Feature", "properties": {"objectives": "Promote hand crafts industry", "description": "Construction of a home crafts centre", "title": "Home-Crafts Centre"}}, {"geometry": {"type": "Point", "coordinates": [37.5048160322, -2.04527494713]}, "type": "Feature", "properties": {"objectives": 0, "description": 0, "title": 0}}, {"geometry": {"type": "Point", "coordinates": [37.5048160322, -2.04527494713]}, "type": "Feature", "properties": {"objectives": 0, "description": 0, "title": 0}}, {"geometry": {"type": "Point", "coordinates": [37.5048160322, -2.04527494713]}, "type": "Feature", "properties": {"objectives": 0, "description": 0, "title": 0}}, {"geometry": {"type": "Point", "coordinates": [37.875482451, -2.03936717686]}, "type": "Feature", "properties": {"objectives": "FASTER AND ACCURATE DIAGNOSIS\nEFFICIENT AND EFFECTIVE SERVICES\nREDUCE FINANCIAL BURDEN BY REDUCING REFERRALS\nSAVING ON TIME SPENT SEEKING MEDICAL SERVICES", "description": "PURCHASE OF MEDICAL EQUIPMENTS.", "title": "MEDICAL EQUIPMENTS(INCLUDING X-RAY)"}}, {"geometry": {"type": "Point", "coordinates": [37.875482451, -2.03936717686]}, "type": "Feature", "properties": {"objectives": "TO PROVIIDE BASIC INVESTIGATIONS THROUGH LABORATORY SERVICES.\nTO TREAT MINOR CASES.\nTO DIAGNOSE AND REFER DIFFICULT CASES FOR FURTHER MANAGEMENT.\nTO DIAGNOSE EARLY FOR CASE MANAGEMENT INSTEAD OF WAITING FOR LATE STAGES.", "description": "TO CONDUCT MEDICAL OUTREACHES IN THE SIX SUB-COUNTIES", "title": "MEDICAL OUTREACH CAMPAIGNS"}}, {"geometry": {"type": "Point", "coordinates": [37.875482451, -2.03936717686]}, "type": "Feature", "properties": {"objectives": "Promote local trade in livestock", "description": "Construction of a stock yard", "title": "Construction of Kitise Stock yard"}}, {"geometry": {"type": "Point", "coordinates": [37.875482451, -2.03936717686]}, "type": "Feature", "properties": {"objectives": "To reduce distance to a water point", "description": "Desilting of Matulani earth dam in Kitise Kithuki ward", "title": "Desilting of Matulani earth dam-"}}, {"geometry": {"type": "Point", "coordinates": [37.875482451, -2.03936717686]}, "type": "Feature", "properties": {"objectives": 0, "description": 0, "title": 0}}, {"geometry": {"type": "Point", "coordinates": [37.7491313251, -1.99518181363]}, "type": "Feature", "properties": {"objectives": "FASTER AND ACCURATE DIAGNOSIS\nEFFICIENT AND EFFECTIVE SERVICES\nREDUCE FINANCIAL BURDEN BY REDUCING REFERRALS\nSAVING ON TIME SPENT SEEKING MEDICAL SERVICES", "description": "PURCHASE OF MEDICAL EQUIPMENTS.", "title": "MEDICAL EQUIPMENTS(INCLUDING X-RAY)"}}, {"geometry": {"type": "Point", "coordinates": [37.020860872, -0.54059324741]}, "type": "Feature", "properties": {"objectives": "To provide an additional transmission capacity to the National grid in order to address the increased power demand by ensuring that there is adequate, reliable, quality, affordable, sustainable and secure energy.", "description": "The project entails construction of a High Voltage Direct Current (HVDC) overhead transmission line to interconnect the Electricity network of Ethiopia, at Wolayta/Sodo substation, with the Kenya Network, at the Suswa Substation in order to increase the", "title": "ETHIOPIA - KENYA ELECTRICITY EXPANSION HIGHWAY PROJECT (EA INTERCONNECTOR)"}}, {"geometry": {"type": "Point", "coordinates": [37.7491313251, -1.99518181363]}, "type": "Feature", "properties": {"objectives": "TO PROVIIDE BASIC INVESTIGATIONS THROUGH LABORATORY SERVICES.\nTO TREAT MINOR CASES.\nTO DIAGNOSE AND REFER DIFFICULT CASES FOR FURTHER MANAGEMENT.\nTO DIAGNOSE EARLY FOR CASE MANAGEMENT INSTEAD OF WAITING FOR LATE STAGES.", "description": "TO CONDUCT MEDICAL OUTREACHES IN THE SIX SUB-COUNTIES", "title": "MEDICAL OUTREACH CAMPAIGNS"}}, {"geometry": {"type": "Point", "coordinates": [37.7491313251, -1.99518181363]}, "type": "Feature", "properties": {"objectives": "Promote local trade", "description": "Construction of a market shed", "title": "Kathonzweni Market Shed"}}, {"geometry": {"type": "Point", "coordinates": [37.7491313251, -1.99518181363]}, "type": "Feature", "properties": {"objectives": 0, "description": 0, "title": 0}}, {"geometry": {"type": "Point", "coordinates": [37.7491313251, -1.99518181363]}, "type": "Feature", "properties": {"objectives": 0, "description": 0, "title": 0}}, {"geometry": {"type": "Point", "coordinates": [37.7491313251, -1.99518181363]}, "type": "Feature", "properties": {"objectives": 0, "description": 0, "title": 0}}, {"geometry": {"type": "Point", "coordinates": [37.4528736548, -1.98361432053]}, "type": "Feature", "properties": {"objectives": "Promote local trade", "description": "Construction and commissioning of the market shed", "title": "Mutyambua Market Shed"}}, {"geometry": {"type": "Point", "coordinates": [37.4528736548, -1.98361432053]}, "type": "Feature", "properties": {"objectives": "To increase forest cover to 10%", "description": "Tree planting on public forests/areas-Masue & Mwambwani hill", "title": "Mbitini -Tree planting on public forests/areas"}}, {"geometry": {"type": "Point", "coordinates": [37.4528736548, -1.98361432053]}, "type": "Feature", "properties": {"objectives": 0, "description": 0, "title": 0}}, {"geometry": {"type": "Point", "coordinates": [37.4528736548, -1.98361432053]}, "type": "Feature", "properties": {"objectives": 0, "description": 0, "title": 0}}, {"geometry": {"type": "Point", "coordinates": [37.3637973311, -1.96415313628]}, "type": "Feature", "properties": {"objectives": "To ensure water distribution and accesibility", "description": "Drilling, caping and pipeline distribution of Muuani borehole", "title": "Drilling and capping of Muuani borehole"}}, {"geometry": {"type": "Point", "coordinates": [37.3637973311, -1.96415313628]}, "type": "Feature", "properties": {"objectives": "To improve living standards", "description": "construction of Mby in Kasikeu ward to promote irrigationani River sand dam", "title": "Mbyani River sand dam"}}, {"geometry": {"type": "Point", "coordinates": [37.3637973311, -1.96415313628]}, "type": "Feature", "properties": {"objectives": "Improve conditions of the market and hygiene", "description": "Rehabilitation of the existing market shed", "title": "Rehabilitation of Kasikeu Market Shed"}}, {"geometry": {"type": "Point", "coordinates": [37.3637973311, -1.96415313628]}, "type": "Feature", "properties": {"objectives": 0, "description": 0, "title": 0}}, {"geometry": {"type": "Point", "coordinates": [37.190057, -1.949981]}, "type": "Feature", "properties": {"objectives": "INCREASE ENROLMENT TO ADULT EDUCATION IN KAJIADO CATCHMENT", "description": "THE CENTRE, AA ONE STORY BUILDING IS TO BE ESTABLISHED WITHIN ISINYA MULTIPURPOSE DEVELOPMENT AND TRAINING INSTITUTE. THE CENTRE WILL HOUSE A LIBRARY AND SIX STUDY ROOMS.", "title": "Isinya Mdti Learning Resource Centre Training"}}, {"geometry": {"type": "Point", "coordinates": [41.165952, -1.935443]}, "type": "Feature", "properties": {"objectives": "Improvement in the adoption and implementation of standards in the food sector", "description": "Improve surveillance and risk analysis capabilities, strengthen the border inspection posts and their coordination and integration", "title": "Standards And Market Access Programme"}}, {"geometry": {"type": "Point", "coordinates": [41.165952, -1.935443]}, "type": "Feature", "properties": {"objectives": 0, "description": 0, "title": 0}}, {"geometry": {"type": "Point", "coordinates": [37.711909, -1.93207]}, "type": "Feature", "properties": {"objectives": "Provide official residence for the Governor to improve service delivery", "description": "Construction of the Governors residence", "title": "Construction of Governor's house of residence"}}, {"geometry": {"type": "Point", "coordinates": [37.711909, -1.93207]}, "type": "Feature", "properties": {"objectives": "To ensure that all the county administartion units are automated and inter-connected for efficiency", "description": "ict for development and innovation", "title": "ICT FOR DEVELOPMENT"}}, {"geometry": {"type": "Point", "coordinates": [40.6706060344, -0.45140191472]}, "type": "Feature", "properties": {"objectives": "To provide land users with and managers with the enabling policy, institutional and capacity environment for effective adoption of Sustainable Land Management (SLM) in agro-pastoralists production  systems in the selected four Districts( Mbeere, Kyuso, N", "description": "Arid and Semi-arid lands (ASALS) cover about 80% of the country\ufffd\ufffd\ufffd\ufffd\ufffd\ufffds total landmass and are characterized by hot and dry climate, with low and erratic rainfall that varies widely across space and time. Due to the ecological and climatic constraints, the m", "title": "Mainstreaming Sustainable Land Management In Agro-Pastoral Production Systems Of Kenya"}}, {"geometry": {"type": "Point", "coordinates": [40.6706060344, -0.45140191472]}, "type": "Feature", "properties": {"objectives": "To provide land users with and managers with the enabling policy, institutional and capacity environment for effective adoption of Sustainable Land Management (SLM) in agro-pastoralists production  systems in the selected four Districts( Mbeere, Kyuso, N", "description": "Arid and Semi-arid lands (ASALS) cover about 80% of the country\ufffd\ufffd\ufffd\ufffd\ufffd\ufffds total landmass and are characterized by hot and dry climate, with low and erratic rainfall that varies widely across space and time. Due to the ecological and climatic constraints, the m", "title": "Mainstreaming Sustainable Land Management In Agro-Pastoral Production Systems Of Kenya"}}, {"geometry": {"type": "Point", "coordinates": [37.711909, -1.93207]}, "type": "Feature", "properties": {"objectives": "Improve public  information sharing as stipulated in Article 35 of the Constitution of Kenya 2010", "description": "setting up and opeartionalisation of a community radio (local dialect) within the county", "title": "Community Radio Station"}}, {"geometry": {"type": "Point", "coordinates": [37.711909, -1.93207]}, "type": "Feature", "properties": {"objectives": "Raise the living standards", "description": "Establishment of a framework that links Job seekers with potential employers", "title": "Employment Bureau"}}, {"geometry": {"type": "Point", "coordinates": [37.711909, -1.93207]}, "type": "Feature", "properties": {"objectives": "To Increase and Upgrade the Internet Band Width", "description": "Increase and Upgrade the Internet Band Width", "title": "Band with Upgrade"}}, {"geometry": {"type": "Point", "coordinates": [37.711909, -1.93207]}, "type": "Feature", "properties": {"objectives": "Promote consumer protection", "description": "Purchase and installation of consumer protection equipment", "title": "Consumer Protection Unit"}}, {"geometry": {"type": "Point", "coordinates": [37.711909, -1.93207]}, "type": "Feature", "properties": {"objectives": "to reduce likelihood of loss of lives", "description": "provision of supplies and rations during times of distress", "title": "Drought Mitigation &  Response"}}, {"geometry": {"type": "Point", "coordinates": [37.711909, -1.93207]}, "type": "Feature", "properties": {"objectives": "To improve the management of solid waste in the county", "description": "Design mechanism for solid waste mangement", "title": "Waste Management"}}, {"geometry": {"type": "Point", "coordinates": [37.711909, -1.93207]}, "type": "Feature", "properties": {"objectives": "to sanitize the land registry", "description": "creating of County Digital land Data base", "title": "Land Data Digitization"}}, {"geometry": {"type": "Point", "coordinates": [37.711909, -1.93207]}, "type": "Feature", "properties": {"objectives": "To increase the County revenue base", "description": "Purchase of land for parking and market development", "title": "Purchaseof land"}}, {"geometry": {"type": "Point", "coordinates": [37.711909, -1.93207]}, "type": "Feature", "properties": {"objectives": "To empower land owners with other form of collateral", "description": "Survey and mapping of all unsurveyed land in the county for titles deeds", "title": "Survey and mapping for titles deeds"}}, {"geometry": {"type": "Point", "coordinates": [37.711909, -1.93207]}, "type": "Feature", "properties": {"objectives": "To take care of disasters", "description": "Setting aside of a fund to meet emergencies", "title": "Emergency fund"}}, {"geometry": {"type": "Point", "coordinates": [37.711909, -1.93207]}, "type": "Feature", "properties": {"objectives": "Improve connection to power and communication", "description": "Connection of power to Ndovoini community", "title": "Connection of electricity in Ndovoini"}}, {"geometry": {"type": "Point", "coordinates": [37.711909, -1.93207]}, "type": "Feature", "properties": {"objectives": "Connect power to health facilities, schools and offices", "description": "Connect power to households and government entities in the county", "title": "Rural elecrification"}}, {"geometry": {"type": "Point", "coordinates": [37.711909, -1.93207]}, "type": "Feature", "properties": {"objectives": "Provide power to the HQ during power outages", "description": "Purchase and installation of a generator for the county HQ offices", "title": "Purchase of generator set for county HQ"}}, {"geometry": {"type": "Point", "coordinates": [37.711909, -1.93207]}, "type": "Feature", "properties": {"objectives": "To improve efficiency", "description": "Purchase of roads equipment to be used in grading county access roads", "title": "Purchase of Roads equipment"}}, {"geometry": {"type": "Point", "coordinates": [37.711909, -1.93207]}, "type": "Feature", "properties": {"objectives": "Provide for county staff", "description": "Construction of an executive office block", "title": "Construction of Executive block"}}, {"geometry": {"type": "Point", "coordinates": [37.711909, -1.93207]}, "type": "Feature", "properties": {"objectives": "Improved conditions of ward access roads", "description": "Fueling and grading of ward access roads", "title": "Mobilization of grader"}}, {"geometry": {"type": "Point", "coordinates": [37.711909, -1.93207]}, "type": "Feature", "properties": {"objectives": "Improve security in the markets", "description": "Installation of high mast lighting in the markets", "title": "Street Lighting for kambu, makindu & matiliku"}}, {"geometry": {"type": "Point", "coordinates": [37.711909, -1.93207]}, "type": "Feature", "properties": {"objectives": "To empower the dairy farmers", "description": "Promotion of dairy farming in the county", "title": "Dairy Development"}}, {"geometry": {"type": "Point", "coordinates": [37.711909, -1.93207]}, "type": "Feature", "properties": {"objectives": 0, "description": 0, "title": 0}}, {"geometry": {"type": "Point", "coordinates": [37.711909, -1.93207]}, "type": "Feature", "properties": {"objectives": 0, "description": 0, "title": 0}}, {"geometry": {"type": "Point", "coordinates": [37.711909, -1.93207]}, "type": "Feature", "properties": {"objectives": 0, "description": 0, "title": 0}}, {"geometry": {"type": "Point", "coordinates": [37.711909, -1.93207]}, "type": "Feature", "properties": {"objectives": 0, "description": 0, "title": 0}}, {"geometry": {"type": "Point", "coordinates": [37.711909, -1.93207]}, "type": "Feature", "properties": {"objectives": 0, "description": 0, "title": 0}}, {"geometry": {"type": "Point", "coordinates": [37.711909, -1.93207]}, "type": "Feature", "properties": {"objectives": 0, "description": 0, "title": 0}}, {"geometry": {"type": "Point", "coordinates": [37.711909, -1.93207]}, "type": "Feature", "properties": {"objectives": 0, "description": 0, "title": 0}}, {"geometry": {"type": "Point", "coordinates": [37.711909, -1.93207]}, "type": "Feature", "properties": {"objectives": 0, "description": 0, "title": 0}}, {"geometry": {"type": "Point", "coordinates": [37.711909, -1.93207]}, "type": "Feature", "properties": {"objectives": 0, "description": 0, "title": 0}}, {"geometry": {"type": "Point", "coordinates": [37.5403601761, -1.92828229641]}, "type": "Feature", "properties": {"objectives": "Improve security", "description": "Installation of high mast street lighting", "title": "High mast street lights"}}, {"geometry": {"type": "Point", "coordinates": [37.5403601761, -1.92828229641]}, "type": "Feature", "properties": {"objectives": "Improve horticultural farming and commercial horticulture", "description": "Benchmarking tours for fruit processing plant, Land purchase for fruit processing plant, Land survey and design for fruit processing plant, Launching of the fruit processing plant, Baseline/Validation of production levels (various fruits and products), I", "title": "Fruit processing plant"}}, {"geometry": {"type": "Point", "coordinates": [36.239517907, -0.19564156553]}, "type": "Feature", "properties": {"objectives": "BUILD CAPACITY OF THE YOUTH", "description": "REVITALIZATION OF MELANGINE YOUTH POLYTECHNIC", "title": "Revitalization Of Melangine Youth Polytechnic"}}, {"geometry": {"type": "Point", "coordinates": [36.239517907, -0.19564156553]}, "type": "Feature", "properties": {"objectives": "BUILD CAPACITY OF THE YOUTH", "description": "REVITALIZATION OF MELANGINE YOUTH POLYTECHNIC", "title": "Revitalization Of Melangine Youth Polytechnic"}}, {"geometry": {"type": "Point", "coordinates": [34.9371687589, -0.18768299304]}, "type": "Feature", "properties": {"objectives": "To increase the accomomodation space by 20 self-contained rooms \nReplace the existing leaking roof \n- To enhance AIA collections", "description": "Parttioning of existing dormitory rooms into 20 self-contained rooms \nRemoval of asbestos roof and re-roofing using galvanized iron sheets\nRe-wiring of the two blocks \nDrainage connection \npainting \nFixing of floor tiles", "title": "Proposed Renovotaton of  Ahero /Nyando Hostels at Ahero Multipurpose Development Training Institute"}}, {"geometry": {"type": "Point", "coordinates": [37.5403601761, -1.92828229641]}, "type": "Feature", "properties": {"objectives": 0, "description": 0, "title": 0}}, {"geometry": {"type": "Point", "coordinates": [37.5403601761, -1.92828229641]}, "type": "Feature", "properties": {"objectives": 0, "description": 0, "title": 0}}, {"geometry": {"type": "Point", "coordinates": [37.5403601761, -1.92828229641]}, "type": "Feature", "properties": {"objectives": 0, "description": 0, "title": 0}}, {"geometry": {"type": "Point", "coordinates": [35.8707022692, -0.15869064577]}, "type": "Feature", "properties": {"objectives": "To provide an additional transmission capacity to the National grid in order to address the increased power demand by ensuring that there is adequate, reliable, quality, affordable, sustainable and secure energy.", "description": "The project entails construction of a High Voltage Direct Current (HVDC) overhead transmission line to interconnect the Electricity network of Ethiopia, at Wolayta/Sodo substation, with the Kenya Network, at the Suswa Substation in order to increase the", "title": "ETHIOPIA - KENYA ELECTRICITY EXPANSION HIGHWAY PROJECT (EA INTERCONNECTOR)"}}, {"geometry": {"type": "Point", "coordinates": [37.5403601761, -1.92828229641]}, "type": "Feature", "properties": {"objectives": 0, "description": 0, "title": 0}}, {"geometry": {"type": "Point", "coordinates": [37.5403601761, -1.92828229641]}, "type": "Feature", "properties": {"objectives": 0, "description": 0, "title": 0}}, {"geometry": {"type": "Point", "coordinates": [37.5403601761, -1.92828229641]}, "type": "Feature", "properties": {"objectives": 0, "description": 0, "title": 0}}, {"geometry": {"type": "Point", "coordinates": [37.6527223052, -1.86984758885]}, "type": "Feature", "properties": {"objectives": "FASTER AND ACCURATE DIAGNOSIS\nEFFICIENT AND EFFECTIVE SERVICES\nREDUCE FINANCIAL BURDEN BY REDUCING REFERRALS\nSAVING ON TIME SPENT SEEKING MEDICAL SERVICES", "description": "PURCHASE OF MEDICAL EQUIPMENTS.", "title": "MEDICAL EQUIPMENTS(INCLUDING X-RAY)"}}, {"geometry": {"type": "Point", "coordinates": [37.6527223052, -1.86984758885]}, "type": "Feature", "properties": {"objectives": "To conserve the water source", "description": "Rehabilitation of Nzueni hill in Muvau/Kikumini ward", "title": "Rehabilitation of Nzueni hill"}}, {"geometry": {"type": "Point", "coordinates": [37.6527223052, -1.86984758885]}, "type": "Feature", "properties": {"objectives": 0, "description": 0, "title": 0}}, {"geometry": {"type": "Point", "coordinates": [37.8106399967, -1.86649143841]}, "type": "Feature", "properties": {"objectives": "Promote trade in livestock", "description": "Construction and commissioning of the stock yard", "title": "Mavindini stockyard"}}, {"geometry": {"type": "Point", "coordinates": [37.8106399967, -1.86649143841]}, "type": "Feature", "properties": {"objectives": "Improve access and communication", "description": "Bush clearing and grading of access roads - 51 Kms (9 Kms under bush clearing)", "title": "Grading of mavindini ward access roads"}}, {"geometry": {"type": "Point", "coordinates": [37.8106399967, -1.86649143841]}, "type": "Feature", "properties": {"objectives": 0, "description": 0, "title": 0}}, {"geometry": {"type": "Point", "coordinates": [34.7779446835, -0.07024260276]}, "type": "Feature", "properties": {"objectives": "xxx", "description": "The objective of the project are to (a) increase the efficiency of road transport along the northern corridor and the Tanzania -Kenya- Sudan Road Corridor; (b) Enhance aviation safety and security to meet international standards ; (c) improve the institu", "title": "Kenya Transport Sector Support Project (KTSSP)"}}, {"geometry": {"type": "Point", "coordinates": [37.8106399967, -1.86649143841]}, "type": "Feature", "properties": {"objectives": 0, "description": 0, "title": 0}}, {"geometry": {"type": "Point", "coordinates": [37.325309965, -1.85574563821]}, "type": "Feature", "properties": {"objectives": "FASTER AND ACCURATE DIAGNOSIS\nEFFICIENT AND EFFECTIVE SERVICES\nREDUCE FINANCIAL BURDEN BY REDUCING REFERRALS\nSAVING ON TIME SPENT SEEKING MEDICAL SERVICES", "description": "PURCHASE OF MEDICAL EQUIPMENTS.", "title": "MEDICAL EQUIPMENTS(INCLUDING X-RAY)"}}, {"geometry": {"type": "Point", "coordinates": [37.325309965, -1.85574563821]}, "type": "Feature", "properties": {"objectives": "TO PROVIIDE BASIC INVESTIGATIONS THROUGH LABORATORY SERVICES.\nTO TREAT MINOR CASES.\nTO DIAGNOSE AND REFER DIFFICULT CASES FOR FURTHER MANAGEMENT.\nTO DIAGNOSE EARLY FOR CASE MANAGEMENT INSTEAD OF WAITING FOR LATE STAGES.", "description": "TO CONDUCT MEDICAL OUTREACHES IN THE SIX SUB-COUNTIES", "title": "MEDICAL OUTREACH CAMPAIGNS"}}, {"geometry": {"type": "Point", "coordinates": [37.325309965, -1.85574563821]}, "type": "Feature", "properties": {"objectives": 0, "description": 0, "title": 0}}, {"geometry": {"type": "Point", "coordinates": [37.325309965, -1.85574563821]}, "type": "Feature", "properties": {"objectives": 0, "description": 0, "title": 0}}, {"geometry": {"type": "Point", "coordinates": [37.284727, -1.847919]}, "type": "Feature", "properties": {"objectives": "To contribute to the capacity of Kenya by increasing the number of new connections by 200,000 annually as well as rural electricity rate from the current 23% to 40% by 2020", "description": "The project consists of the construction of 431 km of 132kV lines, the extension of 6 substations and the construction of eight new substations that will contribute to the capacity of Kenya to increase the number of new connections by 200,000 annually.", "title": "Power Transmission System Improvement Project"}}, {"geometry": {"type": "Point", "coordinates": [37.284727, -1.847919]}, "type": "Feature", "properties": {"objectives": "to reduce likelihood of loss of lives", "description": "provision of supplies and rations during times of distress", "title": "Drought Mitigation &  Response"}}, {"geometry": {"type": "Point", "coordinates": [37.284727, -1.847919]}, "type": "Feature", "properties": {"objectives": "To improve the management of solid waste in the county", "description": "Design mechanism for solid waste mangement", "title": "Waste Management"}}, {"geometry": {"type": "Point", "coordinates": [37.284727, -1.847919]}, "type": "Feature", "properties": {"objectives": "to sanitize the land registry", "description": "creating of County Digital land Data base", "title": "Land Data Digitization"}}, {"geometry": {"type": "Point", "coordinates": [37.284727, -1.847919]}, "type": "Feature", "properties": {"objectives": "To empower the dairy farmers", "description": "Promotion of dairy farming in the county", "title": "Dairy Development"}}, {"geometry": {"type": "Point", "coordinates": [37.284727, -1.847919]}, "type": "Feature", "properties": {"objectives": 0, "description": 0, "title": 0}}, {"geometry": {"type": "Point", "coordinates": [37.284727, -1.847919]}, "type": "Feature", "properties": {"objectives": 0, "description": 0, "title": 0}}, {"geometry": {"type": "Point", "coordinates": [37.284727, -1.847919]}, "type": "Feature", "properties": {"objectives": 0, "description": 0, "title": 0}}, {"geometry": {"type": "Point", "coordinates": [37.284727, -1.847919]}, "type": "Feature", "properties": {"objectives": 0, "description": 0, "title": 0}}, {"geometry": {"type": "Point", "coordinates": [37.284727, -1.847919]}, "type": "Feature", "properties": {"objectives": 0, "description": 0, "title": 0}}, {"geometry": {"type": "Point", "coordinates": [37.4289206527, -1.83884307712]}, "type": "Feature", "properties": {"objectives": "Promote local trade", "description": "Construction of a market shed", "title": "kyambeke market shed"}}, {"geometry": {"type": "Point", "coordinates": [37.4289206527, -1.83884307712]}, "type": "Feature", "properties": {"objectives": "To empower the dairy farmers", "description": "Installation of milk cool tanks 500 lts and 300ltrs and 10 milk cans for Ilima - Kyambeke & Kyangala", "title": "Ilima Dairy project"}}, {"geometry": {"type": "Point", "coordinates": [37.4289206527, -1.83884307712]}, "type": "Feature", "properties": {"objectives": 0, "description": 0, "title": 0}}, {"geometry": {"type": "Point", "coordinates": [37.5944000209, -1.81112475649]}, "type": "Feature", "properties": {"objectives": "The project objective is to help empower poor communities to access socio-economic services in order to reduce poverty and to improve the management of local socio-economic development.", "description": "The project comprises of two components; \ni) Capacity building component which aims at developing the capacity of communities and other local level stakeholders to make better, more focused and equitable use of resources made available through Devolved f", "title": "Community Empowerement And Institutional Support Project (CEISP)"}}, {"geometry": {"type": "Point", "coordinates": [37.5944000209, -1.81112475649]}, "type": "Feature", "properties": {"objectives": "FASTER AND ACCURATE DIAGNOSIS\nEFFICIENT AND EFFECTIVE SERVICES\nREDUCE FINANCIAL BURDEN BY REDUCING REFERRALS\nSAVING ON TIME SPENT SEEKING MEDICAL SERVICES", "description": "PURCHASE OF MEDICAL EQUIPMENTS.", "title": "MEDICAL EQUIPMENTS(INCLUDING X-RAY)"}}, {"geometry": {"type": "Point", "coordinates": [37.5944000209, -1.81112475649]}, "type": "Feature", "properties": {"objectives": "TO ALLEVIATE SHORTAGES\nCREATE EMPLOYMENT", "description": "PROVIDE A  TRAINING COLLEGE FOR MEDICAL STUDENTS.", "title": "MEDICAL TRAINING COLLEGE"}}, {"geometry": {"type": "Point", "coordinates": [37.5944000209, -1.81112475649]}, "type": "Feature", "properties": {"objectives": "Promote trade incubation in the county", "description": "Undertaking business empowerment programmes for Makueni business community", "title": "Makueni Business empowerment Program"}}, {"geometry": {"type": "Point", "coordinates": [37.5944000209, -1.81112475649]}, "type": "Feature", "properties": {"objectives": "Promote local trade", "description": "Construction of the market shed", "title": "Mwaani market shed"}}, {"geometry": {"type": "Point", "coordinates": [37.5944000209, -1.81112475649]}, "type": "Feature", "properties": {"objectives": "To promote and enhance local trade", "description": "Construction of a shed for 'Jua Kali' traders", "title": "Jua Kali Shed Wote"}}, {"geometry": {"type": "Point", "coordinates": [37.5944000209, -1.81112475649]}, "type": "Feature", "properties": {"objectives": "Improve lighting in the markets and towns", "description": "Street lighting in wote town and selected market centres", "title": "Street Lighting"}}, {"geometry": {"type": "Point", "coordinates": [37.5944000209, -1.81112475649]}, "type": "Feature", "properties": {"objectives": "Improve transport and communication", "description": "Light grading and bush clearing", "title": "Grading of wote town roads"}}, {"geometry": {"type": "Point", "coordinates": [37.5944000209, -1.81112475649]}, "type": "Feature", "properties": {"objectives": "Improve road conditions in the town", "description": "Refilling of potholes in wote town", "title": "Sealing of pot holes in wote town"}}, {"geometry": {"type": "Point", "coordinates": [37.5944000209, -1.81112475649]}, "type": "Feature", "properties": {"objectives": "Revenue generation", "description": "Construction of parking lots", "title": "Parking spaces improvement in wote"}}, {"geometry": {"type": "Point", "coordinates": [37.5944000209, -1.81112475649]}, "type": "Feature", "properties": {"objectives": 0, "description": 0, "title": 0}}, {"geometry": {"type": "Point", "coordinates": [37.5944000209, -1.81112475649]}, "type": "Feature", "properties": {"objectives": 0, "description": 0, "title": 0}}, {"geometry": {"type": "Point", "coordinates": [37.5944000209, -1.81112475649]}, "type": "Feature", "properties": {"objectives": 0, "description": 0, "title": 0}}, {"geometry": {"type": "Point", "coordinates": [37.5944000209, -1.81112475649]}, "type": "Feature", "properties": {"objectives": 0, "description": 0, "title": 0}}, {"geometry": {"type": "Point", "coordinates": [37.5944000209, -1.81112475649]}, "type": "Feature", "properties": {"objectives": 0, "description": 0, "title": 0}}, {"geometry": {"type": "Point", "coordinates": [37.5944000209, -1.81112475649]}, "type": "Feature", "properties": {"objectives": 0, "description": 0, "title": 0}}, {"geometry": {"type": "Point", "coordinates": [37.3725296294, -1.79867010691]}, "type": "Feature", "properties": {"objectives": "FASTER AND ACCURATE DIAGNOSIS\nEFFICIENT AND EFFECTIVE SERVICES\nREDUCE FINANCIAL BURDEN BY REDUCING REFERRALS\nSAVING ON TIME SPENT SEEKING MEDICAL SERVICES", "description": "PURCHASE OF MEDICAL EQUIPMENTS.", "title": "MEDICAL EQUIPMENTS(INCLUDING X-RAY)"}}, {"geometry": {"type": "Point", "coordinates": [37.3725296294, -1.79867010691]}, "type": "Feature", "properties": {"objectives": "Promote local trade", "description": "Rehabilitation works", "title": "Rehabilitation of Kalongo Mkt. shed"}}, {"geometry": {"type": "Point", "coordinates": [37.3725296294, -1.79867010691]}, "type": "Feature", "properties": {"objectives": 0, "description": 0, "title": 0}}, {"geometry": {"type": "Point", "coordinates": [37.3725296294, -1.79867010691]}, "type": "Feature", "properties": {"objectives": 0, "description": 0, "title": 0}}, {"geometry": {"type": "Point", "coordinates": [37.3725296294, -1.79867010691]}, "type": "Feature", "properties": {"objectives": 0, "description": 0, "title": 0}}, {"geometry": {"type": "Point", "coordinates": [37.2274861973, -1.79555935928]}, "type": "Feature", "properties": {"objectives": "TO PROVIIDE BASIC INVESTIGATIONS THROUGH LABORATORY SERVICES.\nTO TREAT MINOR CASES.\nTO DIAGNOSE AND REFER DIFFICULT CASES FOR FURTHER MANAGEMENT.\nTO DIAGNOSE EARLY FOR CASE MANAGEMENT INSTEAD OF WAITING FOR LATE STAGES.", "description": "TO CONDUCT MEDICAL OUTREACHES IN THE SIX SUB-COUNTIES", "title": "MEDICAL OUTREACH CAMPAIGNS"}}, {"geometry": {"type": "Point", "coordinates": [37.2274861973, -1.79555935928]}, "type": "Feature", "properties": {"objectives": "Promote culture and local tourism", "description": "Construction of a cultural centre", "title": "Itumbule Cultural Centre"}}, {"geometry": {"type": "Point", "coordinates": [37.2274861973, -1.79555935928]}, "type": "Feature", "properties": {"objectives": 0, "description": 0, "title": 0}}, {"geometry": {"type": "Point", "coordinates": [37.2274861973, -1.79555935928]}, "type": "Feature", "properties": {"objectives": 0, "description": 0, "title": 0}}, {"geometry": {"type": "Point", "coordinates": [37.2274861973, -1.79555935928]}, "type": "Feature", "properties": {"objectives": 0, "description": 0, "title": 0}}, {"geometry": {"type": "Point", "coordinates": [37.2274861973, -1.79555935928]}, "type": "Feature", "properties": {"objectives": 0, "description": 0, "title": 0}}, {"geometry": {"type": "Point", "coordinates": [37.43904, -1.775052]}, "type": "Feature", "properties": {"objectives": "to reduce likelihood of loss of lives", "description": "provision of supplies and rations during times of distress", "title": "Drought Mitigation &  Response"}}, {"geometry": {"type": "Point", "coordinates": [37.43904, -1.775052]}, "type": "Feature", "properties": {"objectives": "To improve the management of solid waste in the county", "description": "Design mechanism for solid waste mangement", "title": "Waste Management"}}, {"geometry": {"type": "Point", "coordinates": [37.43904, -1.775052]}, "type": "Feature", "properties": {"objectives": "to sanitize the land registry", "description": "creating of County Digital land Data base", "title": "Land Data Digitization"}}, {"geometry": {"type": "Point", "coordinates": [37.43904, -1.775052]}, "type": "Feature", "properties": {"objectives": "To empower the dairy farmers", "description": "Promotion of dairy farming in the county", "title": "Dairy Development"}}, {"geometry": {"type": "Point", "coordinates": [37.43904, -1.775052]}, "type": "Feature", "properties": {"objectives": 0, "description": 0, "title": 0}}, {"geometry": {"type": "Point", "coordinates": [37.43904, -1.775052]}, "type": "Feature", "properties": {"objectives": 0, "description": 0, "title": 0}}, {"geometry": {"type": "Point", "coordinates": [37.43904, -1.775052]}, "type": "Feature", "properties": {"objectives": 0, "description": 0, "title": 0}}, {"geometry": {"type": "Point", "coordinates": [37.43904, -1.775052]}, "type": "Feature", "properties": {"objectives": 0, "description": 0, "title": 0}}, {"geometry": {"type": "Point", "coordinates": [37.5129741094, -1.77103337915]}, "type": "Feature", "properties": {"objectives": "To increase farmers  income in the county.", "description": "The fruit processing plant is aimed at processing fruit from the county this includes mangoes, oranges and other fruits.", "title": "fruit processing plant"}}, {"geometry": {"type": "Point", "coordinates": [37.5129741094, -1.77103337915]}, "type": "Feature", "properties": {"objectives": "FASTER AND ACCURATE DIAGNOSIS\nEFFICIENT AND EFFECTIVE SERVICES\nREDUCE FINANCIAL BURDEN BY REDUCING REFERRALS\nSAVING ON TIME SPENT SEEKING MEDICAL SERVICES", "description": "PURCHASE OF MEDICAL EQUIPMENTS.", "title": "MEDICAL EQUIPMENTS(INCLUDING X-RAY)"}}, {"geometry": {"type": "Point", "coordinates": [37.5129741094, -1.77103337915]}, "type": "Feature", "properties": {"objectives": "Promote livestock trade", "description": "Construction of a stock yard", "title": "Kilala Stock yard"}}, {"geometry": {"type": "Point", "coordinates": [37.5129741094, -1.77103337915]}, "type": "Feature", "properties": {"objectives": "Promote local trade in horticulture", "description": "Construction of stalls for horticultural traders in the market", "title": "Construction of Itangini stalls"}}, {"geometry": {"type": "Point", "coordinates": [37.5129741094, -1.77103337915]}, "type": "Feature", "properties": {"objectives": "Improve access and communication", "description": "Bush clearing and grading of access roads - 57.72 Kms (28.7 Kms under manual grading and 15.6 Kms under bush clearing)", "title": "Grading of Ukia ward access roads"}}, {"geometry": {"type": "Point", "coordinates": [37.5129741094, -1.77103337915]}, "type": "Feature", "properties": {"objectives": 0, "description": 0, "title": 0}}, {"geometry": {"type": "Point", "coordinates": [37.3595758511, -1.73787068117]}, "type": "Feature", "properties": {"objectives": "to increase forest cover to at least 10%", "description": "Tree planting in Kee ward", "title": "Kee-conservation"}}, {"geometry": {"type": "Point", "coordinates": [37.3595758511, -1.73787068117]}, "type": "Feature", "properties": {"objectives": 0, "description": 0, "title": 0}}, {"geometry": {"type": "Point", "coordinates": [37.4778955713, -1.69958487961]}, "type": "Feature", "properties": {"objectives": "FASTER AND ACCURATE DIAGNOSIS\nEFFICIENT AND EFFECTIVE SERVICES\nREDUCE FINANCIAL BURDEN BY REDUCING REFERRALS\nSAVING ON TIME SPENT SEEKING MEDICAL SERVICES", "description": "PURCHASE OF MEDICAL EQUIPMENTS.", "title": "MEDICAL EQUIPMENTS(INCLUDING X-RAY)"}}, {"geometry": {"type": "Point", "coordinates": [37.4778955713, -1.69958487961]}, "type": "Feature", "properties": {"objectives": "Promote local trade", "description": "Construction of a market shed", "title": "Kithungo Market shed"}}, {"geometry": {"type": "Point", "coordinates": [37.4778955713, -1.69958487961]}, "type": "Feature", "properties": {"objectives": 0, "description": 0, "title": 0}}, {"geometry": {"type": "Point", "coordinates": [37.4778955713, -1.69958487961]}, "type": "Feature", "properties": {"objectives": 0, "description": 0, "title": 0}}, {"geometry": {"type": "Point", "coordinates": [37.4778955713, -1.69958487961]}, "type": "Feature", "properties": {"objectives": 0, "description": 0, "title": 0}}, {"geometry": {"type": "Point", "coordinates": [37.7538987742, -1.69875649828]}, "type": "Feature", "properties": {"objectives": "Promote local trade", "description": "Construction of a market shed", "title": "Kalawa market shed"}}, {"geometry": {"type": "Point", "coordinates": [37.7538987742, -1.69875649828]}, "type": "Feature", "properties": {"objectives": "Promote livestock trade", "description": "Construction of a stock holding grounds", "title": "Construction of Kathulumbi livestock yard"}}, {"geometry": {"type": "Point", "coordinates": [37.7538987742, -1.69875649828]}, "type": "Feature", "properties": {"objectives": "To improve food production", "description": "construction of kalawa sand dam", "title": "Kalawa -sand dam"}}, {"geometry": {"type": "Point", "coordinates": [37.7538987742, -1.69875649828]}, "type": "Feature", "properties": {"objectives": "Improve access and communication", "description": "Bush clearing and grading of access roads - 60.3 Kms", "title": "Grading of Kalawa ward access roads"}}, {"geometry": {"type": "Point", "coordinates": [40.5670083273, -1.68665545379]}, "type": "Feature", "properties": {"objectives": "provide support to poor farmersin semi-arid areas of Kenya in achieving sustainable improved livelihoods through farm forestry enterprises and supporting activities, as well as strengthening socio-economic Farmer Field Schools (FFS) networks.", "description": "Field Level Innovation Development in Tharaka, Mbeere, and Kitui.\nCommunity Driven Enterprise Investiment Support\nManagement, Accountability and Monitoring & Evaluation", "title": "Support To Community Based Farm Forestry Enteprises In Semi Arid Areas In Kenya Project (SCBFFEP)"}}, {"geometry": {"type": "Point", "coordinates": [37.6206380137, -1.68273881939]}, "type": "Feature", "properties": {"objectives": "Promote local trade", "description": "Rehabilitation of the market shed", "title": "Rehabilitation of Muiu market shed"}}, {"geometry": {"type": "Point", "coordinates": [37.6206380137, -1.68273881939]}, "type": "Feature", "properties": {"objectives": 0, "description": 0, "title": 0}}, {"geometry": {"type": "Point", "coordinates": [37.6206380137, -1.68273881939]}, "type": "Feature", "properties": {"objectives": 0, "description": 0, "title": 0}}, {"geometry": {"type": "Point", "coordinates": [37.4417642346, -1.65551622888]}, "type": "Feature", "properties": {"objectives": "#NAME?", "description": "The Thwake Multi-purpose Water Development program Phase I is made up of two components: UA 61,680,000 (LOAN) and UA 1,210,000 (GRANT) and it the following three aspects:\n   - Civil works contract for construction of 77 m high rockfill dam; construction", "title": "THWAKE MULTI-PURPOSE WATER DEVELOPMENT PROGRAM PHASE I"}},